%time,field.header.seq,field.header.stamp,field.header.frame_id,field.status.status,field.status.service,field.latitude,field.longitude,field.altitude,field.position_covariance0,field.position_covariance1,field.position_covariance2,field.position_covariance3,field.position_covariance4,field.position_covariance5,field.position_covariance6,field.position_covariance7,field.position_covariance8,field.position_covariance_type
1494414857160971784,0,1494414857160971784,gps,0,0,47.39610672,8.64813041687,0.0,0.0,0.0,0.0,0.0,0.0,0.0,0.0,0.0,0.0,0
1494414857260563349,0,1494414857260563349,gps,0,0,47.39610672,8.64813041687,0.0,0.0,0.0,0.0,0.0,0.0,0.0,0.0,0.0,0.0,0
1494414857360584850,0,1494414857360584850,gps,0,0,47.39610672,8.64813041687,0.0,0.0,0.0,0.0,0.0,0.0,0.0,0.0,0.0,0.0,0
1494414857460555604,0,1494414857460555604,gps,0,0,47.39610672,8.64813041687,0.0,0.0,0.0,0.0,0.0,0.0,0.0,0.0,0.0,0.0,0
1494414857560590339,0,1494414857560590339,gps,0,0,47.39610672,8.64813041687,0.0,0.0,0.0,0.0,0.0,0.0,0.0,0.0,0.0,0.0,0
1494414857660632144,0,1494414857660632144,gps,0,0,47.39610672,8.64813041687,0.0,0.0,0.0,0.0,0.0,0.0,0.0,0.0,0.0,0.0,0
1494414857760604375,0,1494414857760604375,gps,0,0,47.39610672,8.64813041687,0.0,0.0,0.0,0.0,0.0,0.0,0.0,0.0,0.0,0.0,0
1494414857860580198,0,1494414857860580198,gps,0,0,47.39610672,8.64813041687,0.0,0.0,0.0,0.0,0.0,0.0,0.0,0.0,0.0,0.0,0
1494414857960534494,0,1494414857960534494,gps,0,0,47.39610672,8.64813041687,0.0,0.0,0.0,0.0,0.0,0.0,0.0,0.0,0.0,0.0,0
1494414858060514618,0,1494414858060514618,gps,0,0,47.39610672,8.64813041687,0.0,0.0,0.0,0.0,0.0,0.0,0.0,0.0,0.0,0.0,0
1494414858161011359,0,1494414858161011359,gps,0,0,47.39610672,8.64813041687,0.0,0.0,0.0,0.0,0.0,0.0,0.0,0.0,0.0,0.0,0
1494414858260540492,0,1494414858260540492,gps,0,0,47.39610672,8.64813041687,0.0,0.0,0.0,0.0,0.0,0.0,0.0,0.0,0.0,0.0,0
1494414858360605858,0,1494414858360605858,gps,0,0,47.39610672,8.64813041687,0.0,0.0,0.0,0.0,0.0,0.0,0.0,0.0,0.0,0.0,0
1494414858460718837,0,1494414858460718837,gps,0,0,47.39610672,8.64813041687,0.0,0.0,0.0,0.0,0.0,0.0,0.0,0.0,0.0,0.0,0
1494414858560577566,0,1494414858560577566,gps,0,0,47.39610672,8.64813041687,0.0,0.0,0.0,0.0,0.0,0.0,0.0,0.0,0.0,0.0,0
1494414858660641157,0,1494414858660641157,gps,0,0,47.39610672,8.64813041687,0.0,0.0,0.0,0.0,0.0,0.0,0.0,0.0,0.0,0.0,0
1494414858760794392,0,1494414858760794392,gps,0,0,47.39610672,8.64813041687,0.0,0.0,0.0,0.0,0.0,0.0,0.0,0.0,0.0,0.0,0
1494414858860552670,0,1494414858860552670,gps,0,0,47.39610672,8.64813137054,0.0,0.0,0.0,0.0,0.0,0.0,0.0,0.0,0.0,0.0,0
1494414858960554517,0,1494414858960554517,gps,0,0,47.39610672,8.64813137054,0.0,0.0,0.0,0.0,0.0,0.0,0.0,0.0,0.0,0.0,0
1494414859060549829,0,1494414859060549829,gps,0,0,47.39610672,8.64813137054,0.0,0.0,0.0,0.0,0.0,0.0,0.0,0.0,0.0,0.0,0
1494414859160853331,0,1494414859160853331,gps,0,0,47.39610672,8.64813137054,0.0,0.0,0.0,0.0,0.0,0.0,0.0,0.0,0.0,0.0,0
1494414859260506601,0,1494414859260506601,gps,0,0,47.39610672,8.64813137054,0.0,0.0,0.0,0.0,0.0,0.0,0.0,0.0,0.0,0.0,0
1494414859360528210,0,1494414859360528210,gps,0,0,47.39610672,8.64813137054,0.0,0.0,0.0,0.0,0.0,0.0,0.0,0.0,0.0,0.0,0
1494414859460533054,0,1494414859460533054,gps,0,0,47.39610672,8.64813137054,0.0,0.0,0.0,0.0,0.0,0.0,0.0,0.0,0.0,0.0,0
1494414859560567087,0,1494414859560567087,gps,0,0,47.39610672,8.64813137054,0.0,0.0,0.0,0.0,0.0,0.0,0.0,0.0,0.0,0.0,0
1494414859660565386,0,1494414859660565386,gps,0,0,47.39610672,8.64813137054,0.0,0.0,0.0,0.0,0.0,0.0,0.0,0.0,0.0,0.0,0
1494414859760568669,0,1494414859760568669,gps,0,0,47.39610672,8.64813137054,0.0,0.0,0.0,0.0,0.0,0.0,0.0,0.0,0.0,0.0,0
1494414859860583604,0,1494414859860583604,gps,0,0,47.39610672,8.64813137054,0.0,0.0,0.0,0.0,0.0,0.0,0.0,0.0,0.0,0.0,0
1494414859960546519,0,1494414859960546519,gps,0,0,47.39610672,8.64813137054,0.0,0.0,0.0,0.0,0.0,0.0,0.0,0.0,0.0,0.0,0
1494414860060495912,0,1494414860060495912,gps,0,0,47.39610672,8.64813137054,0.0,0.0,0.0,0.0,0.0,0.0,0.0,0.0,0.0,0.0,0
1494414860160932459,0,1494414860160932459,gps,0,0,47.39610672,8.64813137054,0.0,0.0,0.0,0.0,0.0,0.0,0.0,0.0,0.0,0.0,0
1494414860260559999,0,1494414860260559999,gps,0,0,47.39610672,8.64813137054,0.0,0.0,0.0,0.0,0.0,0.0,0.0,0.0,0.0,0.0,0
1494414860360606004,0,1494414860360606004,gps,0,0,47.39610672,8.64813137054,0.0,0.0,0.0,0.0,0.0,0.0,0.0,0.0,0.0,0.0,0
1494414860460506124,0,1494414860460506124,gps,0,0,47.39610672,8.64813137054,0.0,0.0,0.0,0.0,0.0,0.0,0.0,0.0,0.0,0.0,0
1494414860560527367,0,1494414860560527367,gps,0,0,47.39610672,8.64813137054,0.0,0.0,0.0,0.0,0.0,0.0,0.0,0.0,0.0,0.0,0
1494414860660532679,0,1494414860660532679,gps,0,0,47.39610672,8.64813137054,0.0,0.0,0.0,0.0,0.0,0.0,0.0,0.0,0.0,0.0,0
1494414860760525925,0,1494414860760525925,gps,0,0,47.39610672,8.64813137054,0.0,0.0,0.0,0.0,0.0,0.0,0.0,0.0,0.0,0.0,0
1494414860860579189,0,1494414860860579189,gps,0,0,47.39610672,8.64813137054,0.0,0.0,0.0,0.0,0.0,0.0,0.0,0.0,0.0,0.0,0
1494414860960511216,0,1494414860960511216,gps,0,0,47.39610672,8.64813137054,0.0,0.0,0.0,0.0,0.0,0.0,0.0,0.0,0.0,0.0,0
1494414861060517331,0,1494414861060517331,gps,0,0,47.39610672,8.64813137054,0.0,0.0,0.0,0.0,0.0,0.0,0.0,0.0,0.0,0.0,0
1494414861160857536,0,1494414861160857536,gps,0,0,47.39610672,8.64813137054,0.0,0.0,0.0,0.0,0.0,0.0,0.0,0.0,0.0,0.0,0
1494414861260457319,0,1494414861260457319,gps,0,0,47.39610672,8.64813137054,0.0,0.0,0.0,0.0,0.0,0.0,0.0,0.0,0.0,0.0,0
1494414861360495358,0,1494414861360495358,gps,0,0,47.39610672,8.64813137054,0.0,0.0,0.0,0.0,0.0,0.0,0.0,0.0,0.0,0.0,0
1494414861460465811,0,1494414861460465811,gps,0,0,47.39610672,8.64813137054,0.0,0.0,0.0,0.0,0.0,0.0,0.0,0.0,0.0,0.0,0
1494414861560433743,0,1494414861560433743,gps,0,0,47.39610672,8.64813137054,0.0,0.0,0.0,0.0,0.0,0.0,0.0,0.0,0.0,0.0,0
1494414861660459283,0,1494414861660459283,gps,0,0,47.39610672,8.64813137054,0.0,0.0,0.0,0.0,0.0,0.0,0.0,0.0,0.0,0.0,0
1494414861760473243,0,1494414861760473243,gps,0,0,47.39610672,8.64813137054,0.0,0.0,0.0,0.0,0.0,0.0,0.0,0.0,0.0,0.0,0
1494414861860463469,0,1494414861860463469,gps,0,0,47.39610672,8.64813137054,0.0,0.0,0.0,0.0,0.0,0.0,0.0,0.0,0.0,0.0,0
1494414861960516342,0,1494414861960516342,gps,0,0,47.39610672,8.64813137054,0.0,0.0,0.0,0.0,0.0,0.0,0.0,0.0,0.0,0.0,0
1494414862060470368,0,1494414862060470368,gps,0,0,47.39610672,8.64813137054,0.0,0.0,0.0,0.0,0.0,0.0,0.0,0.0,0.0,0.0,0
1494414862160884815,0,1494414862160884815,gps,0,0,47.39610672,8.64813137054,0.0,0.0,0.0,0.0,0.0,0.0,0.0,0.0,0.0,0.0,0
1494414862260452679,0,1494414862260452679,gps,0,0,47.39610672,8.64813137054,0.0,0.0,0.0,0.0,0.0,0.0,0.0,0.0,0.0,0.0,0
1494414862360426928,0,1494414862360426928,gps,0,0,47.39610672,8.64813137054,0.0,0.0,0.0,0.0,0.0,0.0,0.0,0.0,0.0,0.0,0
1494414862460471718,0,1494414862460471718,gps,0,0,47.39610672,8.64813137054,0.0,0.0,0.0,0.0,0.0,0.0,0.0,0.0,0.0,0.0,0
1494414862560543979,0,1494414862560543979,gps,0,0,47.39610672,8.64813137054,0.0,0.0,0.0,0.0,0.0,0.0,0.0,0.0,0.0,0.0,0
1494414862660446854,0,1494414862660446854,gps,0,0,47.39610672,8.64813137054,0.0,0.0,0.0,0.0,0.0,0.0,0.0,0.0,0.0,0.0,0
1494414862760445033,0,1494414862760445033,gps,0,0,47.39610672,8.64813137054,0.0,0.0,0.0,0.0,0.0,0.0,0.0,0.0,0.0,0.0,0
1494414862860480878,0,1494414862860480878,gps,0,0,47.39610672,8.64813137054,0.0,0.0,0.0,0.0,0.0,0.0,0.0,0.0,0.0,0.0,0
1494414862960414793,0,1494414862960414793,gps,0,0,47.39610672,8.64813137054,0.0,0.0,0.0,0.0,0.0,0.0,0.0,0.0,0.0,0.0,0
1494414863060476372,0,1494414863060476372,gps,0,0,47.39610672,8.64813137054,0.0,0.0,0.0,0.0,0.0,0.0,0.0,0.0,0.0,0.0,0
1494414863160782488,0,1494414863160782488,gps,0,0,47.39610672,8.64813137054,0.0,0.0,0.0,0.0,0.0,0.0,0.0,0.0,0.0,0.0,0
1494414863260472807,0,1494414863260472807,gps,0,0,47.39610672,8.64813137054,0.0,0.0,0.0,0.0,0.0,0.0,0.0,0.0,0.0,0.0,0
1494414863360474889,0,1494414863360474889,gps,0,0,47.39610672,8.64813137054,0.0,0.0,0.0,0.0,0.0,0.0,0.0,0.0,0.0,0.0,0
1494414863460451504,0,1494414863460451504,gps,0,0,47.39610672,8.64813137054,0.0,0.0,0.0,0.0,0.0,0.0,0.0,0.0,0.0,0.0,0
1494414863560483719,0,1494414863560483719,gps,0,0,47.39610672,8.64813137054,0.0,0.0,0.0,0.0,0.0,0.0,0.0,0.0,0.0,0.0,0
1494414863660494854,0,1494414863660494854,gps,0,0,47.39610672,8.64813137054,0.0,0.0,0.0,0.0,0.0,0.0,0.0,0.0,0.0,0.0,0
1494414863760502663,0,1494414863760502663,gps,0,0,47.39610672,8.64813137054,0.0,0.0,0.0,0.0,0.0,0.0,0.0,0.0,0.0,0.0,0
1494414863860690863,0,1494414863860690863,gps,0,0,47.39610672,8.64813041687,0.0,0.0,0.0,0.0,0.0,0.0,0.0,0.0,0.0,0.0,0
1494414863960454161,0,1494414863960454161,gps,0,0,47.39610672,8.64813041687,0.0,0.0,0.0,0.0,0.0,0.0,0.0,0.0,0.0,0.0,0
1494414864060429754,0,1494414864060429754,gps,0,0,47.39610672,8.64813041687,0.0,0.0,0.0,0.0,0.0,0.0,0.0,0.0,0.0,0.0,0
1494414864160794711,0,1494414864160794711,gps,0,0,47.39610672,8.64813041687,0.0,0.0,0.0,0.0,0.0,0.0,0.0,0.0,0.0,0.0,0
1494414864260394496,0,1494414864260394496,gps,0,0,47.39610672,8.64813041687,0.0,0.0,0.0,0.0,0.0,0.0,0.0,0.0,0.0,0.0,0
1494414864360412657,0,1494414864360412657,gps,0,0,47.39610672,8.64813041687,0.0,0.0,0.0,0.0,0.0,0.0,0.0,0.0,0.0,0.0,0
1494414864460685831,0,1494414864460685831,gps,0,0,47.39610672,8.64813041687,0.0,0.0,0.0,0.0,0.0,0.0,0.0,0.0,0.0,0.0,0
1494414864560454860,0,1494414864560454860,gps,0,0,47.39610672,8.64813041687,0.0,0.0,0.0,0.0,0.0,0.0,0.0,0.0,0.0,0.0,0
1494414864660389491,0,1494414864660389491,gps,0,0,47.39610672,8.64813041687,0.0,0.0,0.0,0.0,0.0,0.0,0.0,0.0,0.0,0.0,0
1494414864760396984,0,1494414864760396984,gps,0,0,47.39610672,8.64813041687,0.0,0.0,0.0,0.0,0.0,0.0,0.0,0.0,0.0,0.0,0
1494414864860380638,0,1494414864860380638,gps,0,0,47.39610672,8.64813041687,0.0,0.0,0.0,0.0,0.0,0.0,0.0,0.0,0.0,0.0,0
1494414864960466603,0,1494414864960466603,gps,0,0,47.39610672,8.64813041687,0.0,0.0,0.0,0.0,0.0,0.0,0.0,0.0,0.0,0.0,0
1494414865060400245,0,1494414865060400245,gps,0,0,47.39610672,8.64813041687,0.0,0.0,0.0,0.0,0.0,0.0,0.0,0.0,0.0,0.0,0
1494414865160755485,0,1494414865160755485,gps,0,0,47.39610672,8.64813041687,0.0,0.0,0.0,0.0,0.0,0.0,0.0,0.0,0.0,0.0,0
1494414865260430660,0,1494414865260430660,gps,0,0,47.39610672,8.64813041687,0.0,0.0,0.0,0.0,0.0,0.0,0.0,0.0,0.0,0.0,0
1494414865360383851,0,1494414865360383851,gps,0,0,47.39610672,8.64813041687,0.0,0.0,0.0,0.0,0.0,0.0,0.0,0.0,0.0,0.0,0
1494414865460413255,0,1494414865460413255,gps,0,0,47.39610672,8.64813041687,0.0,0.0,0.0,0.0,0.0,0.0,0.0,0.0,0.0,0.0,0
1494414865560407092,0,1494414865560407092,gps,0,0,47.39610672,8.64813041687,0.0,0.0,0.0,0.0,0.0,0.0,0.0,0.0,0.0,0.0,0
1494414865660383126,0,1494414865660383126,gps,0,0,47.39610672,8.64813041687,0.0,0.0,0.0,0.0,0.0,0.0,0.0,0.0,0.0,0.0,0
1494414865760365245,0,1494414865760365245,gps,0,0,47.39610672,8.64813041687,0.0,0.0,0.0,0.0,0.0,0.0,0.0,0.0,0.0,0.0,0
1494414865860375565,0,1494414865860375565,gps,0,0,47.39610672,8.64813041687,0.0,0.0,0.0,0.0,0.0,0.0,0.0,0.0,0.0,0.0,0
1494414865960441894,0,1494414865960441894,gps,0,0,47.39610672,8.64813041687,0.0,0.0,0.0,0.0,0.0,0.0,0.0,0.0,0.0,0.0,0
1494414866060431269,0,1494414866060431269,gps,0,0,47.39610672,8.64813041687,0.0,0.0,0.0,0.0,0.0,0.0,0.0,0.0,0.0,0.0,0
1494414866160770401,0,1494414866160770401,gps,0,0,47.39610672,8.64813041687,0.0,0.0,0.0,0.0,0.0,0.0,0.0,0.0,0.0,0.0,0
1494414866260421683,0,1494414866260421683,gps,0,0,47.39610672,8.64813041687,0.0,0.0,0.0,0.0,0.0,0.0,0.0,0.0,0.0,0.0,0
1494414866360369931,0,1494414866360369931,gps,0,0,47.39610672,8.64813041687,0.0,0.0,0.0,0.0,0.0,0.0,0.0,0.0,0.0,0.0,0
1494414866460348302,0,1494414866460348302,gps,0,0,47.39610672,8.64813041687,0.0,0.0,0.0,0.0,0.0,0.0,0.0,0.0,0.0,0.0,0
1494414866560365871,0,1494414866560365871,gps,0,0,47.39610672,8.64813041687,0.0,0.0,0.0,0.0,0.0,0.0,0.0,0.0,0.0,0.0,0
1494414866660366843,0,1494414866660366843,gps,0,0,47.39610672,8.6481294632,0.0,0.0,0.0,0.0,0.0,0.0,0.0,0.0,0.0,0.0,0
1494414866760338916,0,1494414866760338916,gps,0,0,47.39610672,8.6481294632,0.0,0.0,0.0,0.0,0.0,0.0,0.0,0.0,0.0,0.0,0
1494414866860369089,0,1494414866860369089,gps,0,0,47.39610672,8.6481294632,0.0,0.0,0.0,0.0,0.0,0.0,0.0,0.0,0.0,0.0,0
1494414866960348576,0,1494414866960348576,gps,0,0,47.39610672,8.6481294632,0.0,0.0,0.0,0.0,0.0,0.0,0.0,0.0,0.0,0.0,0
1494414867060370710,0,1494414867060370710,gps,0,0,47.39610672,8.6481294632,0.0,0.0,0.0,0.0,0.0,0.0,0.0,0.0,0.0,0.0,0
1494414867160721973,0,1494414867160721973,gps,0,0,47.39610672,8.6481294632,0.0,0.0,0.0,0.0,0.0,0.0,0.0,0.0,0.0,0.0,0
1494414867260413116,0,1494414867260413116,gps,0,0,47.39610672,8.6481294632,0.0,0.0,0.0,0.0,0.0,0.0,0.0,0.0,0.0,0.0,0
1494414867360382316,0,1494414867360382316,gps,0,0,47.39610672,8.6481294632,0.0,0.0,0.0,0.0,0.0,0.0,0.0,0.0,0.0,0.0,0
1494414867460339153,0,1494414867460339153,gps,0,0,47.39610672,8.6481294632,0.0,0.0,0.0,0.0,0.0,0.0,0.0,0.0,0.0,0.0,0
1494414867560397571,0,1494414867560397571,gps,0,0,47.39610672,8.6481294632,0.0,0.0,0.0,0.0,0.0,0.0,0.0,0.0,0.0,0.0,0
1494414867660337645,0,1494414867660337645,gps,0,0,47.39610672,8.6481294632,0.0,0.0,0.0,0.0,0.0,0.0,0.0,0.0,0.0,0.0,0
1494414867760336414,0,1494414867760336414,gps,0,0,47.39610672,8.6481294632,0.0,0.0,0.0,0.0,0.0,0.0,0.0,0.0,0.0,0.0,0
1494414867860314229,0,1494414867860314229,gps,0,0,47.39610672,8.6481294632,0.0,0.0,0.0,0.0,0.0,0.0,0.0,0.0,0.0,0.0,0
1494414867960326980,0,1494414867960326980,gps,0,0,47.39610672,8.6481294632,0.0,0.0,0.0,0.0,0.0,0.0,0.0,0.0,0.0,0.0,0
1494414868060293675,0,1494414868060293675,gps,0,0,47.39610672,8.6481294632,0.0,0.0,0.0,0.0,0.0,0.0,0.0,0.0,0.0,0.0,0
1494414868160719768,0,1494414868160719768,gps,0,0,47.39610672,8.6481294632,0.0,0.0,0.0,0.0,0.0,0.0,0.0,0.0,0.0,0.0,0
1494414868260347846,0,1494414868260347846,gps,0,0,47.39610672,8.6481294632,0.0,0.0,0.0,0.0,0.0,0.0,0.0,0.0,0.0,0.0,0
1494414868360349561,0,1494414868360349561,gps,0,0,47.39610672,8.6481294632,0.0,0.0,0.0,0.0,0.0,0.0,0.0,0.0,0.0,0.0,0
1494414868460348226,0,1494414868460348226,gps,0,0,47.39610672,8.6481294632,0.0,0.0,0.0,0.0,0.0,0.0,0.0,0.0,0.0,0.0,0
1494414868560381772,0,1494414868560381772,gps,0,0,47.39610672,8.6481294632,0.0,0.0,0.0,0.0,0.0,0.0,0.0,0.0,0.0,0.0,0
1494414868660257233,0,1494414868660257233,gps,0,0,47.39610672,8.6481294632,0.0,0.0,0.0,0.0,0.0,0.0,0.0,0.0,0.0,0.0,0
1494414868760361750,0,1494414868760361750,gps,0,0,47.39610672,8.6481294632,0.0,0.0,0.0,0.0,0.0,0.0,0.0,0.0,0.0,0.0,0
1494414868860363162,0,1494414868860363162,gps,0,0,47.39610672,8.6481294632,0.0,0.0,0.0,0.0,0.0,0.0,0.0,0.0,0.0,0.0,0
1494414868960319773,0,1494414868960319773,gps,0,0,47.39610672,8.6481294632,0.0,0.0,0.0,0.0,0.0,0.0,0.0,0.0,0.0,0.0,0
1494414869060242470,0,1494414869060242470,gps,0,0,47.39610672,8.6481294632,0.0,0.0,0.0,0.0,0.0,0.0,0.0,0.0,0.0,0.0,0
1494414869160703023,0,1494414869160703023,gps,0,0,47.39610672,8.6481294632,0.0,0.0,0.0,0.0,0.0,0.0,0.0,0.0,0.0,0.0,0
1494414869260258917,0,1494414869260258917,gps,0,0,47.39610672,8.6481294632,0.0,0.0,0.0,0.0,0.0,0.0,0.0,0.0,0.0,0.0,0
1494414869360345210,0,1494414869360345210,gps,0,0,47.39610672,8.6481294632,0.0,0.0,0.0,0.0,0.0,0.0,0.0,0.0,0.0,0.0,0
1494414869460258145,0,1494414869460258145,gps,0,0,47.39610672,8.64812850952,0.0,0.0,0.0,0.0,0.0,0.0,0.0,0.0,0.0,0.0,0
1494414869560323675,0,1494414869560323675,gps,0,0,47.39610672,8.64812850952,0.0,0.0,0.0,0.0,0.0,0.0,0.0,0.0,0.0,0.0,0
1494414869660296412,0,1494414869660296412,gps,0,0,47.39610672,8.64812850952,0.0,0.0,0.0,0.0,0.0,0.0,0.0,0.0,0.0,0.0,0
1494414869760358997,0,1494414869760358997,gps,0,0,47.39610672,8.64812850952,0.0,0.0,0.0,0.0,0.0,0.0,0.0,0.0,0.0,0.0,0
1494414869860278066,0,1494414869860278066,gps,0,0,47.39610672,8.64812850952,0.0,0.0,0.0,0.0,0.0,0.0,0.0,0.0,0.0,0.0,0
1494414869960275528,0,1494414869960275528,gps,0,0,47.39610672,8.64812850952,0.0,0.0,0.0,0.0,0.0,0.0,0.0,0.0,0.0,0.0,0
1494414870060259345,0,1494414870060259345,gps,0,0,47.39610672,8.64812850952,0.0,0.0,0.0,0.0,0.0,0.0,0.0,0.0,0.0,0.0,0
1494414870160660506,0,1494414870160660506,gps,0,0,47.39610672,8.64812850952,0.0,0.0,0.0,0.0,0.0,0.0,0.0,0.0,0.0,0.0,0
1494414870260311149,0,1494414870260311149,gps,0,0,47.39610672,8.64812850952,0.0,0.0,0.0,0.0,0.0,0.0,0.0,0.0,0.0,0.0,0
1494414870360274010,0,1494414870360274010,gps,0,0,47.39610672,8.64812850952,0.0,0.0,0.0,0.0,0.0,0.0,0.0,0.0,0.0,0.0,0
1494414870460293992,0,1494414870460293992,gps,0,0,47.39610672,8.64812850952,0.0,0.0,0.0,0.0,0.0,0.0,0.0,0.0,0.0,0.0,0
1494414870560292384,0,1494414870560292384,gps,0,0,47.39610672,8.64812850952,0.0,0.0,0.0,0.0,0.0,0.0,0.0,0.0,0.0,0.0,0
1494414870660269286,0,1494414870660269286,gps,0,0,47.39610672,8.64812850952,0.0,0.0,0.0,0.0,0.0,0.0,0.0,0.0,0.0,0.0,0
1494414870760276444,0,1494414870760276444,gps,0,0,47.39610672,8.64812850952,0.0,0.0,0.0,0.0,0.0,0.0,0.0,0.0,0.0,0.0,0
1494414870860270010,0,1494414870860270010,gps,0,0,47.39610672,8.64812850952,0.0,0.0,0.0,0.0,0.0,0.0,0.0,0.0,0.0,0.0,0
1494414870960265239,0,1494414870960265239,gps,0,0,47.39610672,8.64812850952,0.0,0.0,0.0,0.0,0.0,0.0,0.0,0.0,0.0,0.0,0
1494414871060265052,0,1494414871060265052,gps,0,0,47.39610672,8.64812850952,0.0,0.0,0.0,0.0,0.0,0.0,0.0,0.0,0.0,0.0,0
1494414871160583696,0,1494414871160583696,gps,0,0,47.39610672,8.64812850952,0.0,0.0,0.0,0.0,0.0,0.0,0.0,0.0,0.0,0.0,0
1494414871260249501,0,1494414871260249501,gps,0,0,47.39610672,8.64812850952,0.0,0.0,0.0,0.0,0.0,0.0,0.0,0.0,0.0,0.0,0
1494414871360321600,0,1494414871360321600,gps,0,0,47.39610672,8.64812850952,0.0,0.0,0.0,0.0,0.0,0.0,0.0,0.0,0.0,0.0,0
1494414871460261045,0,1494414871460261045,gps,0,0,47.39610672,8.64812850952,0.0,0.0,0.0,0.0,0.0,0.0,0.0,0.0,0.0,0.0,0
1494414871560224126,0,1494414871560224126,gps,0,0,47.39610672,8.64812850952,0.0,0.0,0.0,0.0,0.0,0.0,0.0,0.0,0.0,0.0,0
1494414871660238910,0,1494414871660238910,gps,0,0,47.39610672,8.64812850952,0.0,0.0,0.0,0.0,0.0,0.0,0.0,0.0,0.0,0.0,0
1494414871760262022,0,1494414871760262022,gps,0,0,47.39610672,8.64812850952,0.0,0.0,0.0,0.0,0.0,0.0,0.0,0.0,0.0,0.0,0
1494414871860207573,0,1494414871860207573,gps,0,0,47.39610672,8.64812850952,0.0,0.0,0.0,0.0,0.0,0.0,0.0,0.0,0.0,0.0,0
1494414871960222104,0,1494414871960222104,gps,0,0,47.39610672,8.64812850952,0.0,0.0,0.0,0.0,0.0,0.0,0.0,0.0,0.0,0.0,0
1494414872060186001,0,1494414872060186001,gps,0,0,47.39610672,8.64812850952,0.0,0.0,0.0,0.0,0.0,0.0,0.0,0.0,0.0,0.0,0
1494414872160590030,0,1494414872160590030,gps,0,0,47.39610672,8.64812850952,0.0,0.0,0.0,0.0,0.0,0.0,0.0,0.0,0.0,0.0,0
1494414872260276443,0,1494414872260276443,gps,0,0,47.39610672,8.64812850952,0.0,0.0,0.0,0.0,0.0,0.0,0.0,0.0,0.0,0.0,0
1494414872360228887,0,1494414872360228887,gps,0,0,47.39610672,8.64812850952,0.0,0.0,0.0,0.0,0.0,0.0,0.0,0.0,0.0,0.0,0
1494414872460179281,0,1494414872460179281,gps,0,0,47.39610672,8.64812850952,0.0,0.0,0.0,0.0,0.0,0.0,0.0,0.0,0.0,0.0,0
1494414872560215242,0,1494414872560215242,gps,0,0,47.39610672,8.64812850952,0.0,0.0,0.0,0.0,0.0,0.0,0.0,0.0,0.0,0.0,0
1494414872660191813,0,1494414872660191813,gps,0,0,47.39610672,8.64812850952,0.0,0.0,0.0,0.0,0.0,0.0,0.0,0.0,0.0,0.0,0
1494414872760258563,0,1494414872760258563,gps,0,0,47.39610672,8.64812850952,0.0,0.0,0.0,0.0,0.0,0.0,0.0,0.0,0.0,0.0,0
1494414872860234255,0,1494414872860234255,gps,0,0,47.39610672,8.64812850952,0.0,0.0,0.0,0.0,0.0,0.0,0.0,0.0,0.0,0.0,0
1494414872960200100,0,1494414872960200100,gps,0,0,47.39610672,8.64812850952,0.0,0.0,0.0,0.0,0.0,0.0,0.0,0.0,0.0,0.0,0
1494414873060099351,0,1494414873060099351,gps,0,0,47.39610672,8.64812850952,0.0,0.0,0.0,0.0,0.0,0.0,0.0,0.0,0.0,0.0,0
1494414873160560310,0,1494414873160560310,gps,0,0,47.39610672,8.64812850952,0.0,0.0,0.0,0.0,0.0,0.0,0.0,0.0,0.0,0.0,0
1494414873260157550,0,1494414873260157550,gps,0,0,47.39610672,8.64812850952,0.0,0.0,0.0,0.0,0.0,0.0,0.0,0.0,0.0,0.0,0
1494414873360237992,0,1494414873360237992,gps,0,0,47.39610672,8.64812850952,0.0,0.0,0.0,0.0,0.0,0.0,0.0,0.0,0.0,0.0,0
1494414873460200667,0,1494414873460200667,gps,0,0,47.39610672,8.64812850952,0.0,0.0,0.0,0.0,0.0,0.0,0.0,0.0,0.0,0.0,0
1494414873560132487,0,1494414873560132487,gps,0,0,47.39610672,8.64812850952,0.0,0.0,0.0,0.0,0.0,0.0,0.0,0.0,0.0,0.0,0
1494414873660114333,0,1494414873660114333,gps,0,0,47.39610672,8.64812850952,0.0,0.0,0.0,0.0,0.0,0.0,0.0,0.0,0.0,0.0,0
1494414873760185700,0,1494414873760185700,gps,0,0,47.39610672,8.64812850952,0.0,0.0,0.0,0.0,0.0,0.0,0.0,0.0,0.0,0.0,0
1494414873860166397,0,1494414873860166397,gps,0,0,47.39610672,8.64812850952,0.0,0.0,0.0,0.0,0.0,0.0,0.0,0.0,0.0,0.0,0
1494414873960201755,0,1494414873960201755,gps,0,0,47.39610672,8.64812850952,0.0,0.0,0.0,0.0,0.0,0.0,0.0,0.0,0.0,0.0,0
1494414874060156591,0,1494414874060156591,gps,0,0,47.39610672,8.64812850952,0.0,0.0,0.0,0.0,0.0,0.0,0.0,0.0,0.0,0.0,0
1494414874160536745,0,1494414874160536745,gps,0,0,47.39610672,8.64812850952,0.0,0.0,0.0,0.0,0.0,0.0,0.0,0.0,0.0,0.0,0
1494414874260201097,0,1494414874260201097,gps,0,0,47.39610672,8.64812850952,0.0,0.0,0.0,0.0,0.0,0.0,0.0,0.0,0.0,0.0,0
1494414874360226356,0,1494414874360226356,gps,0,0,47.39610672,8.64812850952,0.0,0.0,0.0,0.0,0.0,0.0,0.0,0.0,0.0,0.0,0
1494414874460179246,0,1494414874460179246,gps,0,0,47.39610672,8.64812850952,0.0,0.0,0.0,0.0,0.0,0.0,0.0,0.0,0.0,0.0,0
1494414874560213394,0,1494414874560213394,gps,0,0,47.39610672,8.64812850952,0.0,0.0,0.0,0.0,0.0,0.0,0.0,0.0,0.0,0.0,0
1494414874660134831,0,1494414874660134831,gps,0,0,47.39610672,8.64812850952,0.0,0.0,0.0,0.0,0.0,0.0,0.0,0.0,0.0,0.0,0
1494414874760152012,0,1494414874760152012,gps,0,0,47.39610672,8.64812850952,0.0,0.0,0.0,0.0,0.0,0.0,0.0,0.0,0.0,0.0,0
1494414874860099312,0,1494414874860099312,gps,0,0,47.39610672,8.64812850952,0.0,0.0,0.0,0.0,0.0,0.0,0.0,0.0,0.0,0.0,0
1494414874960173918,0,1494414874960173918,gps,0,0,47.39610672,8.64812850952,0.0,0.0,0.0,0.0,0.0,0.0,0.0,0.0,0.0,0.0,0
1494414875060212298,0,1494414875060212298,gps,0,0,47.39610672,8.64812850952,0.0,0.0,0.0,0.0,0.0,0.0,0.0,0.0,0.0,0.0,0
1494414875160560277,0,1494414875160560277,gps,0,0,47.39610672,8.64812850952,0.0,0.0,0.0,0.0,0.0,0.0,0.0,0.0,0.0,0.0,0
1494414875260150779,0,1494414875260150779,gps,0,0,47.39610672,8.64812850952,0.0,0.0,0.0,0.0,0.0,0.0,0.0,0.0,0.0,0.0,0
1494414875360090379,0,1494414875360090379,gps,0,0,47.39610672,8.64812850952,0.0,0.0,0.0,0.0,0.0,0.0,0.0,0.0,0.0,0.0,0
1494414875460397317,0,1494414875460397317,gps,0,0,47.39610672,8.64812850952,0.0,0.0,0.0,0.0,0.0,0.0,0.0,0.0,0.0,0.0,0
1494414875560230172,0,1494414875560230172,gps,0,0,47.39610672,8.64812850952,0.0,0.0,0.0,0.0,0.0,0.0,0.0,0.0,0.0,0.0,0
1494414875660108162,0,1494414875660108162,gps,0,0,47.39610672,8.64812850952,0.0,0.0,0.0,0.0,0.0,0.0,0.0,0.0,0.0,0.0,0
1494414875760084400,0,1494414875760084400,gps,0,0,47.39610672,8.64812850952,0.0,0.0,0.0,0.0,0.0,0.0,0.0,0.0,0.0,0.0,0
1494414875860172974,0,1494414875860172974,gps,0,0,47.39610672,8.64812850952,0.0,0.0,0.0,0.0,0.0,0.0,0.0,0.0,0.0,0.0,0
1494414875960058464,0,1494414875960058464,gps,0,0,47.39610672,8.64812850952,0.0,0.0,0.0,0.0,0.0,0.0,0.0,0.0,0.0,0.0,0
1494414876060096397,0,1494414876060096397,gps,0,0,47.39610672,8.64812850952,0.0,0.0,0.0,0.0,0.0,0.0,0.0,0.0,0.0,0.0,0
1494414876160458800,0,1494414876160458800,gps,0,0,47.39610672,8.64812850952,0.0,0.0,0.0,0.0,0.0,0.0,0.0,0.0,0.0,0.0,0
1494414876260094590,0,1494414876260094590,gps,0,0,47.39610672,8.64812850952,0.0,0.0,0.0,0.0,0.0,0.0,0.0,0.0,0.0,0.0,0
1494414876360209705,0,1494414876360209705,gps,0,0,47.39610672,8.64812850952,0.0,0.0,0.0,0.0,0.0,0.0,0.0,0.0,0.0,0.0,0
1494414876460101584,0,1494414876460101584,gps,0,0,47.39610672,8.64812850952,0.0,0.0,0.0,0.0,0.0,0.0,0.0,0.0,0.0,0.0,0
1494414876560114544,0,1494414876560114544,gps,0,0,47.39610672,8.64812850952,0.0,0.0,0.0,0.0,0.0,0.0,0.0,0.0,0.0,0.0,0
1494414876660209632,0,1494414876660209632,gps,0,0,47.39610672,8.64812850952,0.0,0.0,0.0,0.0,0.0,0.0,0.0,0.0,0.0,0.0,0
1494414876760057541,0,1494414876760057541,gps,0,0,47.39610672,8.64812850952,0.0,0.0,0.0,0.0,0.0,0.0,0.0,0.0,0.0,0.0,0
1494414876860070453,0,1494414876860070453,gps,0,0,47.39610672,8.64812850952,0.0,0.0,0.0,0.0,0.0,0.0,0.0,0.0,0.0,0.0,0
1494414876960249342,0,1494414876960249342,gps,0,0,47.39610672,8.64812850952,0.0,0.0,0.0,0.0,0.0,0.0,0.0,0.0,0.0,0.0,0
1494414877060162522,0,1494414877060162522,gps,0,0,47.39610672,8.64812850952,0.0,0.0,0.0,0.0,0.0,0.0,0.0,0.0,0.0,0.0,0
1494414877160506409,0,1494414877160506409,gps,0,0,47.39610672,8.64812850952,0.0,0.0,0.0,0.0,0.0,0.0,0.0,0.0,0.0,0.0,0
1494414877260181878,0,1494414877260181878,gps,0,0,47.39610672,8.64812850952,0.0,0.0,0.0,0.0,0.0,0.0,0.0,0.0,0.0,0.0,0
1494414877360187670,0,1494414877360187670,gps,0,0,47.39610672,8.64812850952,0.0,0.0,0.0,0.0,0.0,0.0,0.0,0.0,0.0,0.0,0
1494414877460041293,0,1494414877460041293,gps,0,0,47.39610672,8.64812850952,0.0,0.0,0.0,0.0,0.0,0.0,0.0,0.0,0.0,0.0,0
1494414877560087374,0,1494414877560087374,gps,0,0,47.39610672,8.64812850952,0.0,0.0,0.0,0.0,0.0,0.0,0.0,0.0,0.0,0.0,0
1494414877660042692,0,1494414877660042692,gps,0,0,47.39610672,8.64812850952,0.0,0.0,0.0,0.0,0.0,0.0,0.0,0.0,0.0,0.0,0
1494414877760132853,0,1494414877760132853,gps,0,0,47.39610672,8.64812850952,0.0,0.0,0.0,0.0,0.0,0.0,0.0,0.0,0.0,0.0,0
1494414877860159590,0,1494414877860159590,gps,0,0,47.39610672,8.64812850952,0.0,0.0,0.0,0.0,0.0,0.0,0.0,0.0,0.0,0.0,0
1494414877960115163,0,1494414877960115163,gps,0,0,47.39610672,8.64812850952,0.0,0.0,0.0,0.0,0.0,0.0,0.0,0.0,0.0,0.0,0
1494414878060105266,0,1494414878060105266,gps,0,0,47.39610672,8.64812850952,0.0,0.0,0.0,0.0,0.0,0.0,0.0,0.0,0.0,0.0,0
1494414878160510913,0,1494414878160510913,gps,0,0,47.39610672,8.64812850952,0.0,0.0,0.0,0.0,0.0,0.0,0.0,0.0,0.0,0.0,0
1494414878260089977,0,1494414878260089977,gps,0,0,47.39610672,8.64812850952,0.0,0.0,0.0,0.0,0.0,0.0,0.0,0.0,0.0,0.0,0
1494414878360107446,0,1494414878360107446,gps,0,0,47.39610672,8.64812850952,0.0,0.0,0.0,0.0,0.0,0.0,0.0,0.0,0.0,0.0,0
1494414878460058079,0,1494414878460058079,gps,0,0,47.39610672,8.64812850952,0.0,0.0,0.0,0.0,0.0,0.0,0.0,0.0,0.0,0.0,0
1494414878560108724,0,1494414878560108724,gps,0,0,47.39610672,8.64812850952,0.0,0.0,0.0,0.0,0.0,0.0,0.0,0.0,0.0,0.0,0
1494414878660105063,0,1494414878660105063,gps,0,0,47.39610672,8.64812850952,0.0,0.0,0.0,0.0,0.0,0.0,0.0,0.0,0.0,0.0,0
1494414878760159878,0,1494414878760159878,gps,0,0,47.39610672,8.64812850952,0.0,0.0,0.0,0.0,0.0,0.0,0.0,0.0,0.0,0.0,0
1494414878860112100,0,1494414878860112100,gps,0,0,47.39610672,8.64812850952,0.0,0.0,0.0,0.0,0.0,0.0,0.0,0.0,0.0,0.0,0
1494414878960152081,0,1494414878960152081,gps,0,0,47.39610672,8.64812850952,0.0,0.0,0.0,0.0,0.0,0.0,0.0,0.0,0.0,0.0,0
1494414879060157114,0,1494414879060157114,gps,0,0,47.39610672,8.64812850952,0.0,0.0,0.0,0.0,0.0,0.0,0.0,0.0,0.0,0.0,0
1494414879160427754,0,1494414879160427754,gps,0,0,47.39610672,8.64812850952,0.0,0.0,0.0,0.0,0.0,0.0,0.0,0.0,0.0,0.0,0
1494414879260120282,0,1494414879260120282,gps,0,0,47.39610672,8.64812850952,0.0,0.0,0.0,0.0,0.0,0.0,0.0,0.0,0.0,0.0,0
1494414879360071061,0,1494414879360071061,gps,0,0,47.39610672,8.64812850952,0.0,0.0,0.0,0.0,0.0,0.0,0.0,0.0,0.0,0.0,0
1494414879460154052,0,1494414879460154052,gps,0,0,47.39610672,8.64812850952,0.0,0.0,0.0,0.0,0.0,0.0,0.0,0.0,0.0,0.0,0
1494414879560140518,0,1494414879560140518,gps,0,0,47.39610672,8.64812850952,0.0,0.0,0.0,0.0,0.0,0.0,0.0,0.0,0.0,0.0,0
1494414879660094929,0,1494414879660094929,gps,0,0,47.39610672,8.64812850952,0.0,0.0,0.0,0.0,0.0,0.0,0.0,0.0,0.0,0.0,0
1494414879760109423,0,1494414879760109423,gps,0,0,47.39610672,8.64812850952,0.0,0.0,0.0,0.0,0.0,0.0,0.0,0.0,0.0,0.0,0
1494414879860132259,0,1494414879860132259,gps,0,0,47.39610672,8.64812850952,0.0,0.0,0.0,0.0,0.0,0.0,0.0,0.0,0.0,0.0,0
1494414879960072287,0,1494414879960072287,gps,0,0,47.39610672,8.64812850952,0.0,0.0,0.0,0.0,0.0,0.0,0.0,0.0,0.0,0.0,0
1494414880060085167,0,1494414880060085167,gps,0,0,47.39610672,8.64812850952,0.0,0.0,0.0,0.0,0.0,0.0,0.0,0.0,0.0,0.0,0
1494414880160404048,0,1494414880160404048,gps,0,0,47.39610672,8.64812850952,0.0,0.0,0.0,0.0,0.0,0.0,0.0,0.0,0.0,0.0,0
1494414880260095282,0,1494414880260095282,gps,0,0,47.39610672,8.64812850952,0.0,0.0,0.0,0.0,0.0,0.0,0.0,0.0,0.0,0.0,0
1494414880360127858,0,1494414880360127858,gps,0,0,47.39610672,8.64812850952,0.0,0.0,0.0,0.0,0.0,0.0,0.0,0.0,0.0,0.0,0
1494414880460082034,0,1494414880460082034,gps,0,0,47.39610672,8.64812850952,0.0,0.0,0.0,0.0,0.0,0.0,0.0,0.0,0.0,0.0,0
1494414880560103789,0,1494414880560103789,gps,0,0,47.39610672,8.64812850952,0.0,0.0,0.0,0.0,0.0,0.0,0.0,0.0,0.0,0.0,0
1494414880660096423,0,1494414880660096423,gps,0,0,47.39610672,8.64812850952,0.0,0.0,0.0,0.0,0.0,0.0,0.0,0.0,0.0,0.0,0
1494414880760117731,0,1494414880760117731,gps,0,0,47.39610672,8.64812850952,0.0,0.0,0.0,0.0,0.0,0.0,0.0,0.0,0.0,0.0,0
1494414880860067900,0,1494414880860067900,gps,0,0,47.39610672,8.64812850952,0.0,0.0,0.0,0.0,0.0,0.0,0.0,0.0,0.0,0.0,0
1494414880960057350,0,1494414880960057350,gps,0,0,47.39610672,8.64812850952,0.0,0.0,0.0,0.0,0.0,0.0,0.0,0.0,0.0,0.0,0
1494414881060129620,0,1494414881060129620,gps,0,0,47.39610672,8.64812755585,0.0,0.0,0.0,0.0,0.0,0.0,0.0,0.0,0.0,0.0,0
1494414881160363006,0,1494414881160363006,gps,0,0,47.39610672,8.64812755585,0.0,0.0,0.0,0.0,0.0,0.0,0.0,0.0,0.0,0.0,0
1494414881260047624,0,1494414881260047624,gps,0,0,47.3961029053,8.64812660217,0.0,0.0,0.0,0.0,0.0,0.0,0.0,0.0,0.0,0.0,0
1494414881360053995,0,1494414881360053995,gps,0,0,47.3961029053,8.64812660217,0.0,0.0,0.0,0.0,0.0,0.0,0.0,0.0,0.0,0.0,0
1494414881460016186,0,1494414881460016186,gps,0,0,47.3961029053,8.64812374115,0.0,0.0,0.0,0.0,0.0,0.0,0.0,0.0,0.0,0.0,0
1494414881560104200,0,1494414881560104200,gps,0,0,47.3961029053,8.64812374115,0.0,0.0,0.0,0.0,0.0,0.0,0.0,0.0,0.0,0.0,0
1494414881660017626,0,1494414881660017626,gps,0,0,47.3960990906,8.64811897278,0.0,0.0,0.0,0.0,0.0,0.0,0.0,0.0,0.0,0.0,0
1494414881760084924,0,1494414881760084924,gps,0,0,47.3960990906,8.64811897278,0.0,0.0,0.0,0.0,0.0,0.0,0.0,0.0,0.0,0.0,0
1494414881860045060,0,1494414881860045060,gps,0,0,47.3960914612,8.64811325073,0.0,0.0,0.0,0.0,0.0,0.0,0.0,0.0,0.0,0.0,0
1494414881960075463,0,1494414881960075463,gps,0,0,47.3960914612,8.64811325073,0.0,0.0,0.0,0.0,0.0,0.0,0.0,0.0,0.0,0.0,0
1494414882060036540,0,1494414882060036540,gps,0,0,47.3960914612,8.64810562134,0.0,0.0,0.0,0.0,0.0,0.0,0.0,0.0,0.0,0.0,0
1494414882160313117,0,1494414882160313117,gps,0,0,47.3960914612,8.64810562134,0.0,0.0,0.0,0.0,0.0,0.0,0.0,0.0,0.0,0.0,0
1494414882259965606,0,1494414882259965606,gps,0,0,47.3960838318,8.64809608459,0.0,0.0,0.0,0.0,0.0,0.0,0.0,0.0,0.0,0.0,0
1494414882360090657,0,1494414882360090657,gps,0,0,47.3960838318,8.64809608459,0.0,0.0,0.0,0.0,0.0,0.0,0.0,0.0,0.0,0.0,0
1494414882460057706,0,1494414882460057706,gps,0,0,47.3960723877,8.64808368683,0.0,0.0,0.0,0.0,0.0,0.0,0.0,0.0,0.0,0.0,0
1494414882560071630,0,1494414882560071630,gps,0,0,47.3960723877,8.64808368683,0.0,0.0,0.0,0.0,0.0,0.0,0.0,0.0,0.0,0.0,0
1494414882660039945,0,1494414882660039945,gps,0,0,47.396068573,8.64806938171,0.0,0.0,0.0,0.0,0.0,0.0,0.0,0.0,0.0,0.0,0
1494414882759984757,0,1494414882759984757,gps,0,0,47.396068573,8.64806938171,0.0,0.0,0.0,0.0,0.0,0.0,0.0,0.0,0.0,0.0,0
1494414882860011676,0,1494414882860011676,gps,0,0,47.3960571289,8.64805316925,0.0,0.0,0.0,0.0,0.0,0.0,0.0,0.0,0.0,0.0,0
1494414882960081303,0,1494414882960081303,gps,0,0,47.3960571289,8.64805316925,0.0,0.0,0.0,0.0,0.0,0.0,0.0,0.0,0.0,0.0,0
1494414883059972650,0,1494414883059972650,gps,0,0,47.3960533142,8.64803314209,0.0,0.0,0.0,0.0,0.0,0.0,0.0,0.0,0.0,0.0,0
1494414883160254127,0,1494414883160254127,gps,0,0,47.3960533142,8.64803314209,0.0,0.0,0.0,0.0,0.0,0.0,0.0,0.0,0.0,0.0,0
1494414883260064297,0,1494414883260064297,gps,0,0,47.3960456848,8.64801120758,0.0,0.0,0.0,0.0,0.0,0.0,0.0,0.0,0.0,0.0,0
1494414883360044637,0,1494414883360044637,gps,0,0,47.3960456848,8.64801120758,0.0,0.0,0.0,0.0,0.0,0.0,0.0,0.0,0.0,0.0,0
1494414883460056035,0,1494414883460056035,gps,0,0,47.3960418701,8.64798927307,0.0,0.0,0.0,0.0,0.0,0.0,0.0,0.0,0.0,0.0,0
1494414883560064476,0,1494414883560064476,gps,0,0,47.3960418701,8.64798927307,0.0,0.0,0.0,0.0,0.0,0.0,0.0,0.0,0.0,0.0,0
1494414883660075084,0,1494414883660075084,gps,0,0,47.3960380554,8.64796733856,0.0,0.0,0.0,0.0,0.0,0.0,0.0,0.0,0.0,0.0,0
1494414883760020209,0,1494414883760020209,gps,0,0,47.3960380554,8.64796733856,0.0,0.0,0.0,0.0,0.0,0.0,0.0,0.0,0.0,0.0,0
1494414883859988277,0,1494414883859988277,gps,0,0,47.3960342407,8.64794445038,0.0,0.0,0.0,0.0,0.0,0.0,0.0,0.0,0.0,0.0,0
1494414883960002005,0,1494414883960002005,gps,0,0,47.3960342407,8.64794445038,0.0,0.0,0.0,0.0,0.0,0.0,0.0,0.0,0.0,0.0,0
1494414884060040054,0,1494414884060040054,gps,0,0,47.3960227966,8.64792537689,0.0,0.0,0.0,0.0,0.0,0.0,0.0,0.0,0.0,0.0,0
1494414884160304072,0,1494414884160304072,gps,0,0,47.3960227966,8.64792537689,0.0,0.0,0.0,0.0,0.0,0.0,0.0,0.0,0.0,0.0,0
1494414884260020978,0,1494414884260020978,gps,0,0,47.3960113525,8.64790821075,0.0,0.0,0.0,0.0,0.0,0.0,0.0,0.0,0.0,0.0,0
1494414884360010217,0,1494414884360010217,gps,0,0,47.3960113525,8.64790821075,0.0,0.0,0.0,0.0,0.0,0.0,0.0,0.0,0.0,0.0,0
1494414884459977293,0,1494414884459977293,gps,0,0,47.3959960938,8.64789104462,0.0,0.0,0.0,0.0,0.0,0.0,0.0,0.0,0.0,0.0,0
1494414884559974357,0,1494414884559974357,gps,0,0,47.3959960938,8.64789104462,0.0,0.0,0.0,0.0,0.0,0.0,0.0,0.0,0.0,0.0,0
1494414884659996775,0,1494414884659996775,gps,0,0,47.3959846497,8.64787101746,0.0,0.0,0.0,0.0,0.0,0.0,0.0,0.0,0.0,0.0,0
1494414884760044599,0,1494414884760044599,gps,0,0,47.3959846497,8.64787101746,0.0,0.0,0.0,0.0,0.0,0.0,0.0,0.0,0.0,0.0,0
1494414884860032521,0,1494414884860032521,gps,0,0,47.3959732056,8.64784812927,0.0,0.0,0.0,0.0,0.0,0.0,0.0,0.0,0.0,0.0,0
1494414884959982944,0,1494414884959982944,gps,0,0,47.3959732056,8.64784812927,0.0,0.0,0.0,0.0,0.0,0.0,0.0,0.0,0.0,0.0,0
1494414885060009900,0,1494414885060009900,gps,0,0,47.3959617615,8.64782238007,0.0,0.0,0.0,0.0,0.0,0.0,0.0,0.0,0.0,0.0,0
1494414885160424747,0,1494414885160424747,gps,0,0,47.3959617615,8.64782238007,0.0,0.0,0.0,0.0,0.0,0.0,0.0,0.0,0.0,0.0,0
1494414885259992198,0,1494414885259992198,gps,0,0,47.3959541321,8.64779567719,0.0,0.0,0.0,0.0,0.0,0.0,0.0,0.0,0.0,0.0,0
1494414885359926094,0,1494414885359926094,gps,0,0,47.3959541321,8.64779567719,0.0,0.0,0.0,0.0,0.0,0.0,0.0,0.0,0.0,0.0,0
1494414885459973968,0,1494414885459973968,gps,0,0,47.3959465027,8.64776611328,0.0,0.0,0.0,0.0,0.0,0.0,0.0,0.0,0.0,0.0,0
1494414885559926902,0,1494414885559926902,gps,0,0,47.3959465027,8.64776611328,0.0,0.0,0.0,0.0,0.0,0.0,0.0,0.0,0.0,0.0,0
1494414885659960669,0,1494414885659960669,gps,0,0,47.3959388733,8.64773464203,0.0,0.0,0.0,0.0,0.0,0.0,0.0,0.0,0.0,0.0,0
1494414885759949526,0,1494414885759949526,gps,0,0,47.3959388733,8.64773464203,0.0,0.0,0.0,0.0,0.0,0.0,0.0,0.0,0.0,0.0,0
1494414885859924431,0,1494414885859924431,gps,0,0,47.3959350586,8.6477022171,0.0,0.0,0.0,0.0,0.0,0.0,0.0,0.0,0.0,0.0,0
1494414885959932969,0,1494414885959932969,gps,0,0,47.3959350586,8.6477022171,0.0,0.0,0.0,0.0,0.0,0.0,0.0,0.0,0.0,0.0,0
1494414886059919980,0,1494414886059919980,gps,0,0,47.3959312439,8.64766979218,0.0,0.0,0.0,0.0,0.0,0.0,0.0,0.0,0.0,0.0,0
1494414886160245773,0,1494414886160245773,gps,0,0,47.3959312439,8.64766979218,0.0,0.0,0.0,0.0,0.0,0.0,0.0,0.0,0.0,0.0,0
1494414886259937633,0,1494414886259937633,gps,0,0,47.3959274292,8.6476354599,0.0,0.0,0.0,0.0,0.0,0.0,0.0,0.0,0.0,0.0,0
1494414886359958724,0,1494414886359958724,gps,0,0,47.3959274292,8.6476354599,0.0,0.0,0.0,0.0,0.0,0.0,0.0,0.0,0.0,0.0,0
1494414886459968179,0,1494414886459968179,gps,0,0,47.3959236145,8.64759922028,0.0,0.0,0.0,0.0,0.0,0.0,0.0,0.0,0.0,0.0,0
1494414886559995074,0,1494414886559995074,gps,0,0,47.3959236145,8.64759922028,0.0,0.0,0.0,0.0,0.0,0.0,0.0,0.0,0.0,0.0,0
1494414886659984420,0,1494414886659984420,gps,0,0,47.3959236145,8.64756298065,0.0,0.0,0.0,0.0,0.0,0.0,0.0,0.0,0.0,0.0,0
1494414886760006042,0,1494414886760006042,gps,0,0,47.3959236145,8.64756298065,0.0,0.0,0.0,0.0,0.0,0.0,0.0,0.0,0.0,0.0,0
1494414886859961177,0,1494414886859961177,gps,0,0,47.3959274292,8.6475276947,0.0,0.0,0.0,0.0,0.0,0.0,0.0,0.0,0.0,0.0,0
1494414886959911587,0,1494414886959911587,gps,0,0,47.3959274292,8.6475276947,0.0,0.0,0.0,0.0,0.0,0.0,0.0,0.0,0.0,0.0,0
1494414887059986535,0,1494414887059986535,gps,0,0,47.3959274292,8.64749145508,0.0,0.0,0.0,0.0,0.0,0.0,0.0,0.0,0.0,0.0,0
1494414887160313523,0,1494414887160313523,gps,0,0,47.3959274292,8.64749145508,0.0,0.0,0.0,0.0,0.0,0.0,0.0,0.0,0.0,0.0,0
1494414887259945222,0,1494414887259945222,gps,0,0,47.3959274292,8.64745521545,0.0,0.0,0.0,0.0,0.0,0.0,0.0,0.0,0.0,0.0,0
1494414887359957840,0,1494414887359957840,gps,0,0,47.3959274292,8.64745521545,0.0,0.0,0.0,0.0,0.0,0.0,0.0,0.0,0.0,0.0,0
1494414887459918400,0,1494414887459918400,gps,0,0,47.3959236145,8.64742088318,0.0,0.0,0.0,0.0,0.0,0.0,0.0,0.0,0.0,0.0,0
1494414887559950378,0,1494414887559950378,gps,0,0,47.3959236145,8.64742088318,0.0,0.0,0.0,0.0,0.0,0.0,0.0,0.0,0.0,0.0,0
1494414887659931748,0,1494414887659931748,gps,0,0,47.3959197998,8.6473903656,0.0,0.0,0.0,0.0,0.0,0.0,0.0,0.0,0.0,0.0,0
1494414887759958067,0,1494414887759958067,gps,0,0,47.3959197998,8.6473903656,0.0,0.0,0.0,0.0,0.0,0.0,0.0,0.0,0.0,0.0,0
1494414887859866028,0,1494414887859866028,gps,0,0,47.3959159851,8.64736366272,0.0,0.0,0.0,0.0,0.0,0.0,0.0,0.0,0.0,0.0,0
1494414887959944894,0,1494414887959944894,gps,0,0,47.3959159851,8.64736366272,0.0,0.0,0.0,0.0,0.0,0.0,0.0,0.0,0.0,0.0,0
1494414888059866792,0,1494414888059866792,gps,0,0,47.3959197998,8.64733791351,0.0,0.0,0.0,0.0,0.0,0.0,0.0,0.0,0.0,0.0,0
1494414888160270146,0,1494414888160270146,gps,0,0,47.3959197998,8.64733791351,0.0,0.0,0.0,0.0,0.0,0.0,0.0,0.0,0.0,0.0,0
1494414888259953104,0,1494414888259953104,gps,0,0,47.3959197998,8.64731502533,0.0,0.0,0.0,0.0,0.0,0.0,0.0,0.0,0.0,0.0,0
1494414888359907688,0,1494414888359907688,gps,0,0,47.3959197998,8.64731502533,0.0,0.0,0.0,0.0,0.0,0.0,0.0,0.0,0.0,0.0,0
1494414888459940442,0,1494414888459940442,gps,0,0,47.3959236145,8.64729404449,0.0,0.0,0.0,0.0,0.0,0.0,0.0,0.0,0.0,0.0,0
1494414888559942933,0,1494414888559942933,gps,0,0,47.3959236145,8.64729404449,0.0,0.0,0.0,0.0,0.0,0.0,0.0,0.0,0.0,0.0,0
1494414888659882245,0,1494414888659882245,gps,0,0,47.3959274292,8.64727687836,0.0,0.0,0.0,0.0,0.0,0.0,0.0,0.0,0.0,0.0,0
1494414888759873099,0,1494414888759873099,gps,0,0,47.3959274292,8.64727687836,0.0,0.0,0.0,0.0,0.0,0.0,0.0,0.0,0.0,0.0,0
1494414888859897001,0,1494414888859897001,gps,0,0,47.3959312439,8.64726066589,0.0,0.0,0.0,0.0,0.0,0.0,0.0,0.0,0.0,0.0,0
1494414888959873738,0,1494414888959873738,gps,0,0,47.3959312439,8.64726066589,0.0,0.0,0.0,0.0,0.0,0.0,0.0,0.0,0.0,0.0,0
1494414889059891997,0,1494414889059891997,gps,0,0,47.3959274292,8.64724731445,0.0,0.0,0.0,0.0,0.0,0.0,0.0,0.0,0.0,0.0,0
1494414889160264548,0,1494414889160264548,gps,0,0,47.3959274292,8.64724731445,0.0,0.0,0.0,0.0,0.0,0.0,0.0,0.0,0.0,0.0,0
1494414889259854012,0,1494414889259854012,gps,0,0,47.3959236145,8.64723587036,0.0,0.0,0.0,0.0,0.0,0.0,0.0,0.0,0.0,0.0,0
1494414889359860841,0,1494414889359860841,gps,0,0,47.3959236145,8.64723587036,0.0,0.0,0.0,0.0,0.0,0.0,0.0,0.0,0.0,0.0,0
1494414889459821977,0,1494414889459821977,gps,0,0,47.3959159851,8.64722824097,0.0,0.0,0.0,0.0,0.0,0.0,0.0,0.0,0.0,0.0,0
1494414889559922545,0,1494414889559922545,gps,0,0,47.3959159851,8.64722824097,0.0,0.0,0.0,0.0,0.0,0.0,0.0,0.0,0.0,0.0,0
1494414889659839062,0,1494414889659839062,gps,0,0,47.3959083557,8.64722442627,0.0,0.0,0.0,0.0,0.0,0.0,0.0,0.0,0.0,0.0,0
1494414889759923142,0,1494414889759923142,gps,0,0,47.3959083557,8.64722442627,0.0,0.0,0.0,0.0,0.0,0.0,0.0,0.0,0.0,0.0,0
1494414889859858581,0,1494414889859858581,gps,0,0,47.3959007263,8.64722251892,0.0,0.0,0.0,0.0,0.0,0.0,0.0,0.0,0.0,0.0,0
1494414889959888099,0,1494414889959888099,gps,0,0,47.3959007263,8.64722251892,0.0,0.0,0.0,0.0,0.0,0.0,0.0,0.0,0.0,0.0,0
1494414890059840930,0,1494414890059840930,gps,0,0,47.3958930969,8.64722442627,0.0,0.0,0.0,0.0,0.0,0.0,0.0,0.0,0.0,0.0,0
1494414890160196042,0,1494414890160196042,gps,0,0,47.3958930969,8.64722442627,0.0,0.0,0.0,0.0,0.0,0.0,0.0,0.0,0.0,0.0,0
1494414890259839638,0,1494414890259839638,gps,0,0,47.3958854675,8.64722824097,0.0,0.0,0.0,0.0,0.0,0.0,0.0,0.0,0.0,0.0,0
1494414890359833061,0,1494414890359833061,gps,0,0,47.3958854675,8.64722824097,0.0,0.0,0.0,0.0,0.0,0.0,0.0,0.0,0.0,0.0,0
1494414890459860960,0,1494414890459860960,gps,0,0,47.3958778381,8.64723587036,0.0,0.0,0.0,0.0,0.0,0.0,0.0,0.0,0.0,0.0,0
1494414890559938581,0,1494414890559938581,gps,0,0,47.3958778381,8.64723587036,0.0,0.0,0.0,0.0,0.0,0.0,0.0,0.0,0.0,0.0,0
1494414890659849674,0,1494414890659849674,gps,0,0,47.3958740234,8.64724636078,0.0,0.0,0.0,0.0,0.0,0.0,0.0,0.0,0.0,0.0,0
1494414890759831028,0,1494414890759831028,gps,0,0,47.3958740234,8.64724636078,0.0,0.0,0.0,0.0,0.0,0.0,0.0,0.0,0.0,0.0,0
1494414890859802016,0,1494414890859802016,gps,0,0,47.3958740234,8.64725971222,0.0,0.0,0.0,0.0,0.0,0.0,0.0,0.0,0.0,0.0,0
1494414890959770736,0,1494414890959770736,gps,0,0,47.3958740234,8.64725971222,0.0,0.0,0.0,0.0,0.0,0.0,0.0,0.0,0.0,0.0,0
1494414891059812565,0,1494414891059812565,gps,0,0,47.3958740234,8.64727306366,0.0,0.0,0.0,0.0,0.0,0.0,0.0,0.0,0.0,0.0,0
1494414891160228328,0,1494414891160228328,gps,0,0,47.3958740234,8.64727306366,0.0,0.0,0.0,0.0,0.0,0.0,0.0,0.0,0.0,0.0,0
1494414891259838233,0,1494414891259838233,gps,0,0,47.3958740234,8.6472864151,0.0,0.0,0.0,0.0,0.0,0.0,0.0,0.0,0.0,0.0,0
1494414891360082133,0,1494414891360082133,gps,0,0,47.3958740234,8.6472864151,0.0,0.0,0.0,0.0,0.0,0.0,0.0,0.0,0.0,0.0,0
1494414891459885566,0,1494414891459885566,gps,0,0,47.3958740234,8.64730167389,0.0,0.0,0.0,0.0,0.0,0.0,0.0,0.0,0.0,0.0,0
1494414891559743955,0,1494414891559743955,gps,0,0,47.3958740234,8.64730167389,0.0,0.0,0.0,0.0,0.0,0.0,0.0,0.0,0.0,0.0,0
1494414891659815854,0,1494414891659815854,gps,0,0,47.3958740234,8.64731884003,0.0,0.0,0.0,0.0,0.0,0.0,0.0,0.0,0.0,0.0,0
1494414891759811952,0,1494414891759811952,gps,0,0,47.3958740234,8.64731884003,0.0,0.0,0.0,0.0,0.0,0.0,0.0,0.0,0.0,0.0,0
1494414891859734524,0,1494414891859734524,gps,0,0,47.3958740234,8.64733791351,0.0,0.0,0.0,0.0,0.0,0.0,0.0,0.0,0.0,0.0,0
1494414891959821313,0,1494414891959821313,gps,0,0,47.3958740234,8.64733791351,0.0,0.0,0.0,0.0,0.0,0.0,0.0,0.0,0.0,0.0,0
1494414892059813995,0,1494414892059813995,gps,0,0,47.3958740234,8.64735889435,0.0,0.0,0.0,0.0,0.0,0.0,0.0,0.0,0.0,0.0,0
1494414892160128478,0,1494414892160128478,gps,0,0,47.3958740234,8.64735889435,0.0,0.0,0.0,0.0,0.0,0.0,0.0,0.0,0.0,0.0,0
1494414892259882385,0,1494414892259882385,gps,0,0,47.3958740234,8.64738368988,0.0,0.0,0.0,0.0,0.0,0.0,0.0,0.0,0.0,0.0,0
1494414892359784751,0,1494414892359784751,gps,0,0,47.3958740234,8.64738368988,0.0,0.0,0.0,0.0,0.0,0.0,0.0,0.0,0.0,0.0,0
1494414892459915345,0,1494414892459915345,gps,0,0,47.3958778381,8.64740943909,0.0,0.0,0.0,0.0,0.0,0.0,0.0,0.0,0.0,0.0,0
1494414892559869930,0,1494414892559869930,gps,0,0,47.3958778381,8.64740943909,0.0,0.0,0.0,0.0,0.0,0.0,0.0,0.0,0.0,0.0,0
1494414892659854544,0,1494414892659854544,gps,0,0,47.3958778381,8.64743900299,0.0,0.0,0.0,0.0,0.0,0.0,0.0,0.0,0.0,0.0,0
1494414892759802998,0,1494414892759802998,gps,0,0,47.3958778381,8.64743900299,0.0,0.0,0.0,0.0,0.0,0.0,0.0,0.0,0.0,0.0,0
1494414892859928043,0,1494414892859928043,gps,0,0,47.3958778381,8.64747047424,0.0,0.0,0.0,0.0,0.0,0.0,0.0,0.0,0.0,0.0,0
1494414892959881016,0,1494414892959881016,gps,0,0,47.3958778381,8.64747047424,0.0,0.0,0.0,0.0,0.0,0.0,0.0,0.0,0.0,0.0,0
1494414893059745488,0,1494414893059745488,gps,0,0,47.3958740234,8.64750289917,0.0,0.0,0.0,0.0,0.0,0.0,0.0,0.0,0.0,0.0,0
1494414893160144669,0,1494414893160144669,gps,0,0,47.3958740234,8.64750289917,0.0,0.0,0.0,0.0,0.0,0.0,0.0,0.0,0.0,0.0,0
1494414893259799815,0,1494414893259799815,gps,0,0,47.3958740234,8.64753341675,0.0,0.0,0.0,0.0,0.0,0.0,0.0,0.0,0.0,0.0,0
1494414893359749718,0,1494414893359749718,gps,0,0,47.3958740234,8.64753341675,0.0,0.0,0.0,0.0,0.0,0.0,0.0,0.0,0.0,0.0,0
1494414893459765097,0,1494414893459765097,gps,0,0,47.3958740234,8.647564888,0.0,0.0,0.0,0.0,0.0,0.0,0.0,0.0,0.0,0.0,0
1494414893559691357,0,1494414893559691357,gps,0,0,47.3958740234,8.647564888,0.0,0.0,0.0,0.0,0.0,0.0,0.0,0.0,0.0,0.0,0
1494414893659879431,0,1494414893659879431,gps,0,0,47.3958702087,8.6475944519,0.0,0.0,0.0,0.0,0.0,0.0,0.0,0.0,0.0,0.0,0
1494414893759777206,0,1494414893759777206,gps,0,0,47.3958702087,8.6475944519,0.0,0.0,0.0,0.0,0.0,0.0,0.0,0.0,0.0,0.0,0
1494414893859733644,0,1494414893859733644,gps,0,0,47.395866394,8.64762210846,0.0,0.0,0.0,0.0,0.0,0.0,0.0,0.0,0.0,0.0,0
1494414893959783458,0,1494414893959783458,gps,0,0,47.395866394,8.64762210846,0.0,0.0,0.0,0.0,0.0,0.0,0.0,0.0,0.0,0.0,0
1494414894059721854,0,1494414894059721854,gps,0,0,47.3958625793,8.64764976501,0.0,0.0,0.0,0.0,0.0,0.0,0.0,0.0,0.0,0.0,0
1494414894160091841,0,1494414894160091841,gps,0,0,47.3958625793,8.64764976501,0.0,0.0,0.0,0.0,0.0,0.0,0.0,0.0,0.0,0.0,0
1494414894259765812,0,1494414894259765812,gps,0,0,47.3958625793,8.6476764679,0.0,0.0,0.0,0.0,0.0,0.0,0.0,0.0,0.0,0.0,0
1494414894359756218,0,1494414894359756218,gps,0,0,47.3958625793,8.6476764679,0.0,0.0,0.0,0.0,0.0,0.0,0.0,0.0,0.0,0.0,0
1494414894459722464,0,1494414894459722464,gps,0,0,47.3958625793,8.6477022171,0.0,0.0,0.0,0.0,0.0,0.0,0.0,0.0,0.0,0.0,0
1494414894559896476,0,1494414894559896476,gps,0,0,47.3958625793,8.6477022171,0.0,0.0,0.0,0.0,0.0,0.0,0.0,0.0,0.0,0.0,0
1494414894659737124,0,1494414894659737124,gps,0,0,47.3958625793,8.64772796631,0.0,0.0,0.0,0.0,0.0,0.0,0.0,0.0,0.0,0.0,0
1494414894759765203,0,1494414894759765203,gps,0,0,47.3958625793,8.64772796631,0.0,0.0,0.0,0.0,0.0,0.0,0.0,0.0,0.0,0.0,0
1494414894859745609,0,1494414894859745609,gps,0,0,47.395866394,8.64775276184,0.0,0.0,0.0,0.0,0.0,0.0,0.0,0.0,0.0,0.0,0
1494414894959814768,0,1494414894959814768,gps,0,0,47.395866394,8.64775276184,0.0,0.0,0.0,0.0,0.0,0.0,0.0,0.0,0.0,0.0,0
1494414895059678399,0,1494414895059678399,gps,0,0,47.3958702087,8.6477766037,0.0,0.0,0.0,0.0,0.0,0.0,0.0,0.0,0.0,0.0,0
1494414895160083136,0,1494414895160083136,gps,0,0,47.3958702087,8.6477766037,0.0,0.0,0.0,0.0,0.0,0.0,0.0,0.0,0.0,0.0,0
1494414895259696732,0,1494414895259696732,gps,0,0,47.3958740234,8.64780044556,0.0,0.0,0.0,0.0,0.0,0.0,0.0,0.0,0.0,0.0,0
1494414895359794093,0,1494414895359794093,gps,0,0,47.3958740234,8.64780044556,0.0,0.0,0.0,0.0,0.0,0.0,0.0,0.0,0.0,0.0,0
1494414895459662191,0,1494414895459662191,gps,0,0,47.3958740234,8.64782524109,0.0,0.0,0.0,0.0,0.0,0.0,0.0,0.0,0.0,0.0,0
1494414895559792947,0,1494414895559792947,gps,0,0,47.3958740234,8.64782524109,0.0,0.0,0.0,0.0,0.0,0.0,0.0,0.0,0.0,0.0,0
1494414895659704797,0,1494414895659704797,gps,0,0,47.3958740234,8.64784908295,0.0,0.0,0.0,0.0,0.0,0.0,0.0,0.0,0.0,0.0,0
1494414895759747859,0,1494414895759747859,gps,0,0,47.3958740234,8.64784908295,0.0,0.0,0.0,0.0,0.0,0.0,0.0,0.0,0.0,0.0,0
1494414895859675097,0,1494414895859675097,gps,0,0,47.3958740234,8.64787197113,0.0,0.0,0.0,0.0,0.0,0.0,0.0,0.0,0.0,0.0,0
1494414895959692743,0,1494414895959692743,gps,0,0,47.3958740234,8.64787197113,0.0,0.0,0.0,0.0,0.0,0.0,0.0,0.0,0.0,0.0,0
1494414896059634558,0,1494414896059634558,gps,0,0,47.3958702087,8.64789485931,0.0,0.0,0.0,0.0,0.0,0.0,0.0,0.0,0.0,0.0,0
1494414896160129598,0,1494414896160129598,gps,0,0,47.3958702087,8.64789485931,0.0,0.0,0.0,0.0,0.0,0.0,0.0,0.0,0.0,0.0,0
1494414896259794498,0,1494414896259794498,gps,0,0,47.3958625793,8.6479177475,0.0,0.0,0.0,0.0,0.0,0.0,0.0,0.0,0.0,0.0,0
1494414896359677573,0,1494414896359677573,gps,0,0,47.3958625793,8.6479177475,0.0,0.0,0.0,0.0,0.0,0.0,0.0,0.0,0.0,0.0,0
1494414896459672113,0,1494414896459672113,gps,0,0,47.39585495,8.64793968201,0.0,0.0,0.0,0.0,0.0,0.0,0.0,0.0,0.0,0.0,0
1494414896559786854,0,1494414896559786854,gps,0,0,47.39585495,8.64793968201,0.0,0.0,0.0,0.0,0.0,0.0,0.0,0.0,0.0,0.0,0
1494414896659709697,0,1494414896659709697,gps,0,0,47.3958511353,8.64795970917,0.0,0.0,0.0,0.0,0.0,0.0,0.0,0.0,0.0,0.0,0
1494414896759680745,0,1494414896759680745,gps,0,0,47.3958511353,8.64795970917,0.0,0.0,0.0,0.0,0.0,0.0,0.0,0.0,0.0,0.0,0
1494414896859718797,0,1494414896859718797,gps,0,0,47.3958473206,8.64798164368,0.0,0.0,0.0,0.0,0.0,0.0,0.0,0.0,0.0,0.0,0
1494414896959638601,0,1494414896959638601,gps,0,0,47.3958473206,8.64798164368,0.0,0.0,0.0,0.0,0.0,0.0,0.0,0.0,0.0,0.0,0
1494414897059648794,0,1494414897059648794,gps,0,0,47.3958396912,8.64800453186,0.0,0.0,0.0,0.0,0.0,0.0,0.0,0.0,0.0,0.0,0
1494414897160079633,0,1494414897160079633,gps,0,0,47.3958396912,8.64800453186,0.0,0.0,0.0,0.0,0.0,0.0,0.0,0.0,0.0,0.0,0
1494414897259688556,0,1494414897259688556,gps,0,0,47.3958358765,8.64802837372,0.0,0.0,0.0,0.0,0.0,0.0,0.0,0.0,0.0,0.0,0
1494414897359733718,0,1494414897359733718,gps,0,0,47.3958358765,8.64802837372,0.0,0.0,0.0,0.0,0.0,0.0,0.0,0.0,0.0,0.0,0
1494414897459746183,0,1494414897459746183,gps,0,0,47.3958358765,8.64805221558,0.0,0.0,0.0,0.0,0.0,0.0,0.0,0.0,0.0,0.0,0
1494414897559628696,0,1494414897559628696,gps,0,0,47.3958358765,8.64805221558,0.0,0.0,0.0,0.0,0.0,0.0,0.0,0.0,0.0,0.0,0
1494414897659678754,0,1494414897659678754,gps,0,0,47.3958320618,8.64807701111,0.0,0.0,0.0,0.0,0.0,0.0,0.0,0.0,0.0,0.0,0
1494414897759643445,0,1494414897759643445,gps,0,0,47.3958320618,8.64807701111,0.0,0.0,0.0,0.0,0.0,0.0,0.0,0.0,0.0,0.0,0
1494414897859631393,0,1494414897859631393,gps,0,0,47.3958282471,8.64810180664,0.0,0.0,0.0,0.0,0.0,0.0,0.0,0.0,0.0,0.0,0
1494414897959713261,0,1494414897959713261,gps,0,0,47.3958282471,8.64810180664,0.0,0.0,0.0,0.0,0.0,0.0,0.0,0.0,0.0,0.0,0
1494414898059614547,0,1494414898059614547,gps,0,0,47.3958282471,8.64812755585,0.0,0.0,0.0,0.0,0.0,0.0,0.0,0.0,0.0,0.0,0
1494414898159963990,0,1494414898159963990,gps,0,0,47.3958282471,8.64812755585,0.0,0.0,0.0,0.0,0.0,0.0,0.0,0.0,0.0,0.0,0
1494414898259622375,0,1494414898259622375,gps,0,0,47.3958244324,8.64815139771,0.0,0.0,0.0,0.0,0.0,0.0,0.0,0.0,0.0,0.0,0
1494414898359674028,0,1494414898359674028,gps,0,0,47.3958244324,8.64815139771,0.0,0.0,0.0,0.0,0.0,0.0,0.0,0.0,0.0,0.0,0
1494414898459645098,0,1494414898459645098,gps,0,0,47.3958206177,8.64817333221,0.0,0.0,0.0,0.0,0.0,0.0,0.0,0.0,0.0,0.0,0
1494414898559715051,0,1494414898559715051,gps,0,0,47.3958206177,8.64817333221,0.0,0.0,0.0,0.0,0.0,0.0,0.0,0.0,0.0,0.0,0
1494414898659719604,0,1494414898659719604,gps,0,0,47.3958206177,8.64819335938,0.0,0.0,0.0,0.0,0.0,0.0,0.0,0.0,0.0,0.0,0
1494414898759681091,0,1494414898759681091,gps,0,0,47.3958206177,8.64819335938,0.0,0.0,0.0,0.0,0.0,0.0,0.0,0.0,0.0,0.0,0
1494414898859594057,0,1494414898859594057,gps,0,0,47.3958206177,8.64821147919,0.0,0.0,0.0,0.0,0.0,0.0,0.0,0.0,0.0,0.0,0
1494414898959663291,0,1494414898959663291,gps,0,0,47.3958206177,8.64821147919,0.0,0.0,0.0,0.0,0.0,0.0,0.0,0.0,0.0,0.0,0
1494414899059858569,0,1494414899059858569,gps,0,0,47.3958206177,8.64822864532,0.0,0.0,0.0,0.0,0.0,0.0,0.0,0.0,0.0,0.0,0
1494414899159961284,0,1494414899159961284,gps,0,0,47.3958206177,8.64822864532,0.0,0.0,0.0,0.0,0.0,0.0,0.0,0.0,0.0,0.0,0
1494414899259709072,0,1494414899259709072,gps,0,0,47.3958244324,8.64824485779,0.0,0.0,0.0,0.0,0.0,0.0,0.0,0.0,0.0,0.0,0
1494414899359672493,0,1494414899359672493,gps,0,0,47.3958244324,8.64824485779,0.0,0.0,0.0,0.0,0.0,0.0,0.0,0.0,0.0,0.0,0
1494414899459689466,0,1494414899459689466,gps,0,0,47.3958320618,8.64825820923,0.0,0.0,0.0,0.0,0.0,0.0,0.0,0.0,0.0,0.0,0
1494414899559695533,0,1494414899559695533,gps,0,0,47.3958320618,8.64825820923,0.0,0.0,0.0,0.0,0.0,0.0,0.0,0.0,0.0,0.0,0
1494414899659729102,0,1494414899659729102,gps,0,0,47.3958435059,8.64826965332,0.0,0.0,0.0,0.0,0.0,0.0,0.0,0.0,0.0,0.0,0
1494414899759682603,0,1494414899759682603,gps,0,0,47.3958435059,8.64826965332,0.0,0.0,0.0,0.0,0.0,0.0,0.0,0.0,0.0,0.0,0
1494414899859651575,0,1494414899859651575,gps,0,0,47.39585495,8.64827632904,0.0,0.0,0.0,0.0,0.0,0.0,0.0,0.0,0.0,0.0,0
1494414899959585795,0,1494414899959585795,gps,0,0,47.39585495,8.64827632904,0.0,0.0,0.0,0.0,0.0,0.0,0.0,0.0,0.0,0.0,0
1494414900059598299,0,1494414900059598299,gps,0,0,47.3958702087,8.64827919006,0.0,0.0,0.0,0.0,0.0,0.0,0.0,0.0,0.0,0.0,0
1494414900160105974,0,1494414900160105974,gps,0,0,47.3958702087,8.64827919006,0.0,0.0,0.0,0.0,0.0,0.0,0.0,0.0,0.0,0.0,0
1494414900259682361,0,1494414900259682361,gps,0,0,47.3958854675,8.64827919006,0.0,0.0,0.0,0.0,0.0,0.0,0.0,0.0,0.0,0.0,0
1494414900359763155,0,1494414900359763155,gps,0,0,47.3958854675,8.64827919006,0.0,0.0,0.0,0.0,0.0,0.0,0.0,0.0,0.0,0.0,0
1494414900459691036,0,1494414900459691036,gps,0,0,47.3959007263,8.64827632904,0.0,0.0,0.0,0.0,0.0,0.0,0.0,0.0,0.0,0.0,0
1494414900559636883,0,1494414900559636883,gps,0,0,47.3959007263,8.64827632904,0.0,0.0,0.0,0.0,0.0,0.0,0.0,0.0,0.0,0.0,0
1494414900659678632,0,1494414900659678632,gps,0,0,47.3959159851,8.64827060699,0.0,0.0,0.0,0.0,0.0,0.0,0.0,0.0,0.0,0.0,0
1494414900759612222,0,1494414900759612222,gps,0,0,47.3959159851,8.64827060699,0.0,0.0,0.0,0.0,0.0,0.0,0.0,0.0,0.0,0.0,0
1494414900859600386,0,1494414900859600386,gps,0,0,47.3959350586,8.64826202393,0.0,0.0,0.0,0.0,0.0,0.0,0.0,0.0,0.0,0.0,0
1494414900959534555,0,1494414900959534555,gps,0,0,47.3959350586,8.64826202393,0.0,0.0,0.0,0.0,0.0,0.0,0.0,0.0,0.0,0.0,0
1494414901059618006,0,1494414901059618006,gps,0,0,47.3959503174,8.64825153351,0.0,0.0,0.0,0.0,0.0,0.0,0.0,0.0,0.0,0.0,0
1494414901159954201,0,1494414901159954201,gps,0,0,47.3959503174,8.64825153351,0.0,0.0,0.0,0.0,0.0,0.0,0.0,0.0,0.0,0.0,0
1494414901259739434,0,1494414901259739434,gps,0,0,47.3959693909,8.64823818207,0.0,0.0,0.0,0.0,0.0,0.0,0.0,0.0,0.0,0.0,0
1494414901359666790,0,1494414901359666790,gps,0,0,47.3959693909,8.64823818207,0.0,0.0,0.0,0.0,0.0,0.0,0.0,0.0,0.0,0.0,0
1494414901459662853,0,1494414901459662853,gps,0,0,47.3959846497,8.64822292328,0.0,0.0,0.0,0.0,0.0,0.0,0.0,0.0,0.0,0.0,0
1494414901559672279,0,1494414901559672279,gps,0,0,47.3959846497,8.64822292328,0.0,0.0,0.0,0.0,0.0,0.0,0.0,0.0,0.0,0.0,0
1494414901659614015,0,1494414901659614015,gps,0,0,47.3959999084,8.64820957184,0.0,0.0,0.0,0.0,0.0,0.0,0.0,0.0,0.0,0.0,0
1494414901759605391,0,1494414901759605391,gps,0,0,47.3959999084,8.64820957184,0.0,0.0,0.0,0.0,0.0,0.0,0.0,0.0,0.0,0.0,0
1494414901859622117,0,1494414901859622117,gps,0,0,47.3960151672,8.64820098877,0.0,0.0,0.0,0.0,0.0,0.0,0.0,0.0,0.0,0.0,0
1494414901959616177,0,1494414901959616177,gps,0,0,47.3960151672,8.64820098877,0.0,0.0,0.0,0.0,0.0,0.0,0.0,0.0,0.0,0.0,0
1494414902059635549,0,1494414902059635549,gps,0,0,47.3960342407,8.64819812775,0.0,0.0,0.0,0.0,0.0,0.0,0.0,0.0,0.0,0.0,0
1494414902159920237,0,1494414902159920237,gps,0,0,47.3960342407,8.64819812775,0.0,0.0,0.0,0.0,0.0,0.0,0.0,0.0,0.0,0.0,0
1494414902259588520,0,1494414902259588520,gps,0,0,47.3960533142,8.64820194244,0.0,0.0,0.0,0.0,0.0,0.0,0.0,0.0,0.0,0.0,0
1494414902359745390,0,1494414902359745390,gps,0,0,47.3960533142,8.64820194244,0.0,0.0,0.0,0.0,0.0,0.0,0.0,0.0,0.0,0.0,0
1494414902459674058,0,1494414902459674058,gps,0,0,47.3960647583,8.64820957184,0.0,0.0,0.0,0.0,0.0,0.0,0.0,0.0,0.0,0.0,0
1494414902559578763,0,1494414902559578763,gps,0,0,47.3960647583,8.64820957184,0.0,0.0,0.0,0.0,0.0,0.0,0.0,0.0,0.0,0.0,0
1494414902659617027,0,1494414902659617027,gps,0,0,47.3960762024,8.64822101593,0.0,0.0,0.0,0.0,0.0,0.0,0.0,0.0,0.0,0.0,0
1494414902759788077,0,1494414902759788077,gps,0,0,47.3960762024,8.64822101593,0.0,0.0,0.0,0.0,0.0,0.0,0.0,0.0,0.0,0.0,0
1494414902859627297,0,1494414902859627297,gps,0,0,47.3960914612,8.64823722839,0.0,0.0,0.0,0.0,0.0,0.0,0.0,0.0,0.0,0.0,0
1494414902959542965,0,1494414902959542965,gps,0,0,47.3960914612,8.64823722839,0.0,0.0,0.0,0.0,0.0,0.0,0.0,0.0,0.0,0.0,0
1494414903059554958,0,1494414903059554958,gps,0,0,47.3961029053,8.64825248718,0.0,0.0,0.0,0.0,0.0,0.0,0.0,0.0,0.0,0.0,0
1494414903159934485,0,1494414903159934485,gps,0,0,47.3961029053,8.64825248718,0.0,0.0,0.0,0.0,0.0,0.0,0.0,0.0,0.0,0.0,0
1494414903259611345,0,1494414903259611345,gps,0,0,47.3961181641,8.6482667923,0.0,0.0,0.0,0.0,0.0,0.0,0.0,0.0,0.0,0.0,0
1494414903359585205,0,1494414903359585205,gps,0,0,47.3961181641,8.6482667923,0.0,0.0,0.0,0.0,0.0,0.0,0.0,0.0,0.0,0.0,0
1494414903459590810,0,1494414903459590810,gps,0,0,47.3961334229,8.64827632904,0.0,0.0,0.0,0.0,0.0,0.0,0.0,0.0,0.0,0.0,0
1494414903559584997,0,1494414903559584997,gps,0,0,47.3961334229,8.64827632904,0.0,0.0,0.0,0.0,0.0,0.0,0.0,0.0,0.0,0.0,0
1494414903659666601,0,1494414903659666601,gps,0,0,47.3961486816,8.64828205109,0.0,0.0,0.0,0.0,0.0,0.0,0.0,0.0,0.0,0.0,0
1494414903759691174,0,1494414903759691174,gps,0,0,47.3961486816,8.64828205109,0.0,0.0,0.0,0.0,0.0,0.0,0.0,0.0,0.0,0.0,0
1494414903859564646,0,1494414903859564646,gps,0,0,47.3961639404,8.64828395844,0.0,0.0,0.0,0.0,0.0,0.0,0.0,0.0,0.0,0.0,0
1494414903959577327,0,1494414903959577327,gps,0,0,47.3961639404,8.64828395844,0.0,0.0,0.0,0.0,0.0,0.0,0.0,0.0,0.0,0.0,0
1494414904059621829,0,1494414904059621829,gps,0,0,47.3961753845,8.64828014374,0.0,0.0,0.0,0.0,0.0,0.0,0.0,0.0,0.0,0.0,0
1494414904159919947,0,1494414904159919947,gps,0,0,47.3961753845,8.64828014374,0.0,0.0,0.0,0.0,0.0,0.0,0.0,0.0,0.0,0.0,0
1494414904259641375,0,1494414904259641375,gps,0,0,47.3961906433,8.64827156067,0.0,0.0,0.0,0.0,0.0,0.0,0.0,0.0,0.0,0.0,0
1494414904359621520,0,1494414904359621520,gps,0,0,47.3961906433,8.64827156067,0.0,0.0,0.0,0.0,0.0,0.0,0.0,0.0,0.0,0.0,0
1494414904459636325,0,1494414904459636325,gps,0,0,47.3961982727,8.64825725555,0.0,0.0,0.0,0.0,0.0,0.0,0.0,0.0,0.0,0.0,0
1494414904559719799,0,1494414904559719799,gps,0,0,47.3961982727,8.64825725555,0.0,0.0,0.0,0.0,0.0,0.0,0.0,0.0,0.0,0.0,0
1494414904659612180,0,1494414904659612180,gps,0,0,47.3962059021,8.64824008942,0.0,0.0,0.0,0.0,0.0,0.0,0.0,0.0,0.0,0.0,0
1494414904759579674,0,1494414904759579674,gps,0,0,47.3962059021,8.64824008942,0.0,0.0,0.0,0.0,0.0,0.0,0.0,0.0,0.0,0.0,0
1494414904859555154,0,1494414904859555154,gps,0,0,47.3962059021,8.6482219696,0.0,0.0,0.0,0.0,0.0,0.0,0.0,0.0,0.0,0.0,0
1494414904959619546,0,1494414904959619546,gps,0,0,47.3962059021,8.6482219696,0.0,0.0,0.0,0.0,0.0,0.0,0.0,0.0,0.0,0.0,0
1494414905059623107,0,1494414905059623107,gps,0,0,47.3961982727,8.64820480347,0.0,0.0,0.0,0.0,0.0,0.0,0.0,0.0,0.0,0.0,0
1494414905159859280,0,1494414905159859280,gps,0,0,47.3961982727,8.64820480347,0.0,0.0,0.0,0.0,0.0,0.0,0.0,0.0,0.0,0.0,0
1494414905259527340,0,1494414905259527340,gps,0,0,47.396194458,8.64819049835,0.0,0.0,0.0,0.0,0.0,0.0,0.0,0.0,0.0,0.0,0
1494414905359588699,0,1494414905359588699,gps,0,0,47.396194458,8.64819049835,0.0,0.0,0.0,0.0,0.0,0.0,0.0,0.0,0.0,0.0,0
1494414905459613476,0,1494414905459613476,gps,0,0,47.3961830139,8.64817810059,0.0,0.0,0.0,0.0,0.0,0.0,0.0,0.0,0.0,0.0,0
1494414905559516125,0,1494414905559516125,gps,0,0,47.3961830139,8.64817810059,0.0,0.0,0.0,0.0,0.0,0.0,0.0,0.0,0.0,0.0,0
1494414905659594937,0,1494414905659594937,gps,0,0,47.3961715698,8.64817047119,0.0,0.0,0.0,0.0,0.0,0.0,0.0,0.0,0.0,0.0,0
1494414905759607631,0,1494414905759607631,gps,0,0,47.3961715698,8.64817047119,0.0,0.0,0.0,0.0,0.0,0.0,0.0,0.0,0.0,0.0,0
1494414905859582538,0,1494414905859582538,gps,0,0,47.3961601257,8.64816379547,0.0,0.0,0.0,0.0,0.0,0.0,0.0,0.0,0.0,0.0,0
1494414905959487655,0,1494414905959487655,gps,0,0,47.3961601257,8.64816379547,0.0,0.0,0.0,0.0,0.0,0.0,0.0,0.0,0.0,0.0,0
1494414906059526356,0,1494414906059526356,gps,0,0,47.3961448669,8.64815807343,0.0,0.0,0.0,0.0,0.0,0.0,0.0,0.0,0.0,0.0,0
1494414906159902547,0,1494414906159902547,gps,0,0,47.3961448669,8.64815807343,0.0,0.0,0.0,0.0,0.0,0.0,0.0,0.0,0.0,0.0,0
1494414906259682159,0,1494414906259682159,gps,0,0,47.3961334229,8.64814853668,0.0,0.0,0.0,0.0,0.0,0.0,0.0,0.0,0.0,0.0,0
1494414906359586144,0,1494414906359586144,gps,0,0,47.3961334229,8.64814853668,0.0,0.0,0.0,0.0,0.0,0.0,0.0,0.0,0.0,0.0,0
1494414906459640625,0,1494414906459640625,gps,0,0,47.3961143494,8.64813709259,0.0,0.0,0.0,0.0,0.0,0.0,0.0,0.0,0.0,0.0,0
1494414906559551255,0,1494414906559551255,gps,0,0,47.3961143494,8.64813709259,0.0,0.0,0.0,0.0,0.0,0.0,0.0,0.0,0.0,0.0,0
1494414906659576977,0,1494414906659576977,gps,0,0,47.3961029053,8.6481218338,0.0,0.0,0.0,0.0,0.0,0.0,0.0,0.0,0.0,0.0,0
1494414906759564526,0,1494414906759564526,gps,0,0,47.3961029053,8.6481218338,0.0,0.0,0.0,0.0,0.0,0.0,0.0,0.0,0.0,0.0,0
1494414906859490958,0,1494414906859490958,gps,0,0,47.3960876465,8.64810371399,0.0,0.0,0.0,0.0,0.0,0.0,0.0,0.0,0.0,0.0,0
1494414906959541966,0,1494414906959541966,gps,0,0,47.3960876465,8.64810371399,0.0,0.0,0.0,0.0,0.0,0.0,0.0,0.0,0.0,0.0,0
1494414907059592627,0,1494414907059592627,gps,0,0,47.3960723877,8.64808368683,0.0,0.0,0.0,0.0,0.0,0.0,0.0,0.0,0.0,0.0,0
1494414907159843877,0,1494414907159843877,gps,0,0,47.3960723877,8.64808368683,0.0,0.0,0.0,0.0,0.0,0.0,0.0,0.0,0.0,0.0,0
