%time,field.header.seq,field.header.stamp,field.header.frame_id,field.status.status,field.status.service,field.latitude,field.longitude,field.altitude,field.position_covariance0,field.position_covariance1,field.position_covariance2,field.position_covariance3,field.position_covariance4,field.position_covariance5,field.position_covariance6,field.position_covariance7,field.position_covariance8,field.position_covariance_type
1.49441485716097E+018,0,1.49441485716097E+018,gps,0,0,47.39610672,8.64813041687,0,0,0,0,0,0,0,0,0,0,0
1.49441485726056E+018,0,1.49441485726056E+018,gps,0,0,47.39610672,8.64813041687,0,0,0,0,0,0,0,0,0,0,0
1.49441485736058E+018,0,1.49441485736058E+018,gps,0,0,47.39610672,8.64813041687,0,0,0,0,0,0,0,0,0,0,0
1.49441485746056E+018,0,1.49441485746056E+018,gps,0,0,47.39610672,8.64813041687,0,0,0,0,0,0,0,0,0,0,0
1.49441485756059E+018,0,1.49441485756059E+018,gps,0,0,47.39610672,8.64813041687,0,0,0,0,0,0,0,0,0,0,0
1.49441485766063E+018,0,1.49441485766063E+018,gps,0,0,47.39610672,8.64813041687,0,0,0,0,0,0,0,0,0,0,0
1.4944148577606E+018,0,1.4944148577606E+018,gps,0,0,47.39610672,8.64813041687,0,0,0,0,0,0,0,0,0,0,0
1.49441485786058E+018,0,1.49441485786058E+018,gps,0,0,47.39610672,8.64813041687,0,0,0,0,0,0,0,0,0,0,0
1.49441485796053E+018,0,1.49441485796053E+018,gps,0,0,47.39610672,8.64813041687,0,0,0,0,0,0,0,0,0,0,0
1.49441485806051E+018,0,1.49441485806051E+018,gps,0,0,47.39610672,8.64813041687,0,0,0,0,0,0,0,0,0,0,0
1.49441485816101E+018,0,1.49441485816101E+018,gps,0,0,47.39610672,8.64813041687,0,0,0,0,0,0,0,0,0,0,0
1.49441485826054E+018,0,1.49441485826054E+018,gps,0,0,47.39610672,8.64813041687,0,0,0,0,0,0,0,0,0,0,0
1.49441485836061E+018,0,1.49441485836061E+018,gps,0,0,47.39610672,8.64813041687,0,0,0,0,0,0,0,0,0,0,0
1.49441485846072E+018,0,1.49441485846072E+018,gps,0,0,47.39610672,8.64813041687,0,0,0,0,0,0,0,0,0,0,0
1.49441485856058E+018,0,1.49441485856058E+018,gps,0,0,47.39610672,8.64813041687,0,0,0,0,0,0,0,0,0,0,0
1.49441485866064E+018,0,1.49441485866064E+018,gps,0,0,47.39610672,8.64813041687,0,0,0,0,0,0,0,0,0,0,0
1.49441485876079E+018,0,1.49441485876079E+018,gps,0,0,47.39610672,8.64813041687,0,0,0,0,0,0,0,0,0,0,0
1.49441485886055E+018,0,1.49441485886055E+018,gps,0,0,47.39610672,8.64813137054,0,0,0,0,0,0,0,0,0,0,0
1.49441485896055E+018,0,1.49441485896055E+018,gps,0,0,47.39610672,8.64813137054,0,0,0,0,0,0,0,0,0,0,0
1.49441485906055E+018,0,1.49441485906055E+018,gps,0,0,47.39610672,8.64813137054,0,0,0,0,0,0,0,0,0,0,0
1.49441485916085E+018,0,1.49441485916085E+018,gps,0,0,47.39610672,8.64813137054,0,0,0,0,0,0,0,0,0,0,0
1.49441485926051E+018,0,1.49441485926051E+018,gps,0,0,47.39610672,8.64813137054,0,0,0,0,0,0,0,0,0,0,0
1.49441485936053E+018,0,1.49441485936053E+018,gps,0,0,47.39610672,8.64813137054,0,0,0,0,0,0,0,0,0,0,0
1.49441485946053E+018,0,1.49441485946053E+018,gps,0,0,47.39610672,8.64813137054,0,0,0,0,0,0,0,0,0,0,0
1.49441485956057E+018,0,1.49441485956057E+018,gps,0,0,47.39610672,8.64813137054,0,0,0,0,0,0,0,0,0,0,0
1.49441485966057E+018,0,1.49441485966057E+018,gps,0,0,47.39610672,8.64813137054,0,0,0,0,0,0,0,0,0,0,0
1.49441485976057E+018,0,1.49441485976057E+018,gps,0,0,47.39610672,8.64813137054,0,0,0,0,0,0,0,0,0,0,0
1.49441485986058E+018,0,1.49441485986058E+018,gps,0,0,47.39610672,8.64813137054,0,0,0,0,0,0,0,0,0,0,0
1.49441485996055E+018,0,1.49441485996055E+018,gps,0,0,47.39610672,8.64813137054,0,0,0,0,0,0,0,0,0,0,0
1.4944148600605E+018,0,1.4944148600605E+018,gps,0,0,47.39610672,8.64813137054,0,0,0,0,0,0,0,0,0,0,0
1.49441486016093E+018,0,1.49441486016093E+018,gps,0,0,47.39610672,8.64813137054,0,0,0,0,0,0,0,0,0,0,0
1.49441486026056E+018,0,1.49441486026056E+018,gps,0,0,47.39610672,8.64813137054,0,0,0,0,0,0,0,0,0,0,0
1.49441486036061E+018,0,1.49441486036061E+018,gps,0,0,47.39610672,8.64813137054,0,0,0,0,0,0,0,0,0,0,0
1.49441486046051E+018,0,1.49441486046051E+018,gps,0,0,47.39610672,8.64813137054,0,0,0,0,0,0,0,0,0,0,0
1.49441486056053E+018,0,1.49441486056053E+018,gps,0,0,47.39610672,8.64813137054,0,0,0,0,0,0,0,0,0,0,0
1.49441486066053E+018,0,1.49441486066053E+018,gps,0,0,47.39610672,8.64813137054,0,0,0,0,0,0,0,0,0,0,0
1.49441486076053E+018,0,1.49441486076053E+018,gps,0,0,47.39610672,8.64813137054,0,0,0,0,0,0,0,0,0,0,0
1.49441486086058E+018,0,1.49441486086058E+018,gps,0,0,47.39610672,8.64813137054,0,0,0,0,0,0,0,0,0,0,0
1.49441486096051E+018,0,1.49441486096051E+018,gps,0,0,47.39610672,8.64813137054,0,0,0,0,0,0,0,0,0,0,0
1.49441486106052E+018,0,1.49441486106052E+018,gps,0,0,47.39610672,8.64813137054,0,0,0,0,0,0,0,0,0,0,0
1.49441486116086E+018,0,1.49441486116086E+018,gps,0,0,47.39610672,8.64813137054,0,0,0,0,0,0,0,0,0,0,0
1.49441486126046E+018,0,1.49441486126046E+018,gps,0,0,47.39610672,8.64813137054,0,0,0,0,0,0,0,0,0,0,0
1.4944148613605E+018,0,1.4944148613605E+018,gps,0,0,47.39610672,8.64813137054,0,0,0,0,0,0,0,0,0,0,0
1.49441486146047E+018,0,1.49441486146047E+018,gps,0,0,47.39610672,8.64813137054,0,0,0,0,0,0,0,0,0,0,0
1.49441486156043E+018,0,1.49441486156043E+018,gps,0,0,47.39610672,8.64813137054,0,0,0,0,0,0,0,0,0,0,0
1.49441486166046E+018,0,1.49441486166046E+018,gps,0,0,47.39610672,8.64813137054,0,0,0,0,0,0,0,0,0,0,0
1.49441486176047E+018,0,1.49441486176047E+018,gps,0,0,47.39610672,8.64813137054,0,0,0,0,0,0,0,0,0,0,0
1.49441486186046E+018,0,1.49441486186046E+018,gps,0,0,47.39610672,8.64813137054,0,0,0,0,0,0,0,0,0,0,0
1.49441486196052E+018,0,1.49441486196052E+018,gps,0,0,47.39610672,8.64813137054,0,0,0,0,0,0,0,0,0,0,0
1.49441486206047E+018,0,1.49441486206047E+018,gps,0,0,47.39610672,8.64813137054,0,0,0,0,0,0,0,0,0,0,0
1.49441486216088E+018,0,1.49441486216088E+018,gps,0,0,47.39610672,8.64813137054,0,0,0,0,0,0,0,0,0,0,0
1.49441486226045E+018,0,1.49441486226045E+018,gps,0,0,47.39610672,8.64813137054,0,0,0,0,0,0,0,0,0,0,0
1.49441486236043E+018,0,1.49441486236043E+018,gps,0,0,47.39610672,8.64813137054,0,0,0,0,0,0,0,0,0,0,0
1.49441486246047E+018,0,1.49441486246047E+018,gps,0,0,47.39610672,8.64813137054,0,0,0,0,0,0,0,0,0,0,0
1.49441486256054E+018,0,1.49441486256054E+018,gps,0,0,47.39610672,8.64813137054,0,0,0,0,0,0,0,0,0,0,0
1.49441486266045E+018,0,1.49441486266045E+018,gps,0,0,47.39610672,8.64813137054,0,0,0,0,0,0,0,0,0,0,0
1.49441486276045E+018,0,1.49441486276045E+018,gps,0,0,47.39610672,8.64813137054,0,0,0,0,0,0,0,0,0,0,0
1.49441486286048E+018,0,1.49441486286048E+018,gps,0,0,47.39610672,8.64813137054,0,0,0,0,0,0,0,0,0,0,0
1.49441486296041E+018,0,1.49441486296041E+018,gps,0,0,47.39610672,8.64813137054,0,0,0,0,0,0,0,0,0,0,0
1.49441486306048E+018,0,1.49441486306048E+018,gps,0,0,47.39610672,8.64813137054,0,0,0,0,0,0,0,0,0,0,0
1.49441486316078E+018,0,1.49441486316078E+018,gps,0,0,47.39610672,8.64813137054,0,0,0,0,0,0,0,0,0,0,0
1.49441486326047E+018,0,1.49441486326047E+018,gps,0,0,47.39610672,8.64813137054,0,0,0,0,0,0,0,0,0,0,0
1.49441486336047E+018,0,1.49441486336047E+018,gps,0,0,47.39610672,8.64813137054,0,0,0,0,0,0,0,0,0,0,0
1.49441486346045E+018,0,1.49441486346045E+018,gps,0,0,47.39610672,8.64813137054,0,0,0,0,0,0,0,0,0,0,0
1.49441486356048E+018,0,1.49441486356048E+018,gps,0,0,47.39610672,8.64813137054,0,0,0,0,0,0,0,0,0,0,0
1.49441486366049E+018,0,1.49441486366049E+018,gps,0,0,47.39610672,8.64813137054,0,0,0,0,0,0,0,0,0,0,0
1.4944148637605E+018,0,1.4944148637605E+018,gps,0,0,47.39610672,8.64813137054,0,0,0,0,0,0,0,0,0,0,0
1.49441486386069E+018,0,1.49441486386069E+018,gps,0,0,47.39610672,8.64813041687,0,0,0,0,0,0,0,0,0,0,0
1.49441486396045E+018,0,1.49441486396045E+018,gps,0,0,47.39610672,8.64813041687,0,0,0,0,0,0,0,0,0,0,0
1.49441486406043E+018,0,1.49441486406043E+018,gps,0,0,47.39610672,8.64813041687,0,0,0,0,0,0,0,0,0,0,0
1.49441486416079E+018,0,1.49441486416079E+018,gps,0,0,47.39610672,8.64813041687,0,0,0,0,0,0,0,0,0,0,0
1.49441486426039E+018,0,1.49441486426039E+018,gps,0,0,47.39610672,8.64813041687,0,0,0,0,0,0,0,0,0,0,0
1.49441486436041E+018,0,1.49441486436041E+018,gps,0,0,47.39610672,8.64813041687,0,0,0,0,0,0,0,0,0,0,0
1.49441486446069E+018,0,1.49441486446069E+018,gps,0,0,47.39610672,8.64813041687,0,0,0,0,0,0,0,0,0,0,0
1.49441486456045E+018,0,1.49441486456045E+018,gps,0,0,47.39610672,8.64813041687,0,0,0,0,0,0,0,0,0,0,0
1.49441486466039E+018,0,1.49441486466039E+018,gps,0,0,47.39610672,8.64813041687,0,0,0,0,0,0,0,0,0,0,0
1.4944148647604E+018,0,1.4944148647604E+018,gps,0,0,47.39610672,8.64813041687,0,0,0,0,0,0,0,0,0,0,0
1.49441486486038E+018,0,1.49441486486038E+018,gps,0,0,47.39610672,8.64813041687,0,0,0,0,0,0,0,0,0,0,0
1.49441486496047E+018,0,1.49441486496047E+018,gps,0,0,47.39610672,8.64813041687,0,0,0,0,0,0,0,0,0,0,0
1.4944148650604E+018,0,1.4944148650604E+018,gps,0,0,47.39610672,8.64813041687,0,0,0,0,0,0,0,0,0,0,0
1.49441486516076E+018,0,1.49441486516076E+018,gps,0,0,47.39610672,8.64813041687,0,0,0,0,0,0,0,0,0,0,0
1.49441486526043E+018,0,1.49441486526043E+018,gps,0,0,47.39610672,8.64813041687,0,0,0,0,0,0,0,0,0,0,0
1.49441486536038E+018,0,1.49441486536038E+018,gps,0,0,47.39610672,8.64813041687,0,0,0,0,0,0,0,0,0,0,0
1.49441486546041E+018,0,1.49441486546041E+018,gps,0,0,47.39610672,8.64813041687,0,0,0,0,0,0,0,0,0,0,0
1.49441486556041E+018,0,1.49441486556041E+018,gps,0,0,47.39610672,8.64813041687,0,0,0,0,0,0,0,0,0,0,0
1.49441486566038E+018,0,1.49441486566038E+018,gps,0,0,47.39610672,8.64813041687,0,0,0,0,0,0,0,0,0,0,0
1.49441486576037E+018,0,1.49441486576037E+018,gps,0,0,47.39610672,8.64813041687,0,0,0,0,0,0,0,0,0,0,0
1.49441486586038E+018,0,1.49441486586038E+018,gps,0,0,47.39610672,8.64813041687,0,0,0,0,0,0,0,0,0,0,0
1.49441486596044E+018,0,1.49441486596044E+018,gps,0,0,47.39610672,8.64813041687,0,0,0,0,0,0,0,0,0,0,0
1.49441486606043E+018,0,1.49441486606043E+018,gps,0,0,47.39610672,8.64813041687,0,0,0,0,0,0,0,0,0,0,0
1.49441486616077E+018,0,1.49441486616077E+018,gps,0,0,47.39610672,8.64813041687,0,0,0,0,0,0,0,0,0,0,0
1.49441486626042E+018,0,1.49441486626042E+018,gps,0,0,47.39610672,8.64813041687,0,0,0,0,0,0,0,0,0,0,0
1.49441486636037E+018,0,1.49441486636037E+018,gps,0,0,47.39610672,8.64813041687,0,0,0,0,0,0,0,0,0,0,0
1.49441486646035E+018,0,1.49441486646035E+018,gps,0,0,47.39610672,8.64813041687,0,0,0,0,0,0,0,0,0,0,0
1.49441486656037E+018,0,1.49441486656037E+018,gps,0,0,47.39610672,8.64813041687,0,0,0,0,0,0,0,0,0,0,0
1.49441486666037E+018,0,1.49441486666037E+018,gps,0,0,47.39610672,8.6481294632,0,0,0,0,0,0,0,0,0,0,0
1.49441486676034E+018,0,1.49441486676034E+018,gps,0,0,47.39610672,8.6481294632,0,0,0,0,0,0,0,0,0,0,0
1.49441486686037E+018,0,1.49441486686037E+018,gps,0,0,47.39610672,8.6481294632,0,0,0,0,0,0,0,0,0,0,0
1.49441486696035E+018,0,1.49441486696035E+018,gps,0,0,47.39610672,8.6481294632,0,0,0,0,0,0,0,0,0,0,0
1.49441486706037E+018,0,1.49441486706037E+018,gps,0,0,47.39610672,8.6481294632,0,0,0,0,0,0,0,0,0,0,0
1.49441486716072E+018,0,1.49441486716072E+018,gps,0,0,47.39610672,8.6481294632,0,0,0,0,0,0,0,0,0,0,0
1.49441486726041E+018,0,1.49441486726041E+018,gps,0,0,47.39610672,8.6481294632,0,0,0,0,0,0,0,0,0,0,0
1.49441486736038E+018,0,1.49441486736038E+018,gps,0,0,47.39610672,8.6481294632,0,0,0,0,0,0,0,0,0,0,0
1.49441486746034E+018,0,1.49441486746034E+018,gps,0,0,47.39610672,8.6481294632,0,0,0,0,0,0,0,0,0,0,0
1.4944148675604E+018,0,1.4944148675604E+018,gps,0,0,47.39610672,8.6481294632,0,0,0,0,0,0,0,0,0,0,0
1.49441486766034E+018,0,1.49441486766034E+018,gps,0,0,47.39610672,8.6481294632,0,0,0,0,0,0,0,0,0,0,0
1.49441486776034E+018,0,1.49441486776034E+018,gps,0,0,47.39610672,8.6481294632,0,0,0,0,0,0,0,0,0,0,0
1.49441486786031E+018,0,1.49441486786031E+018,gps,0,0,47.39610672,8.6481294632,0,0,0,0,0,0,0,0,0,0,0
1.49441486796033E+018,0,1.49441486796033E+018,gps,0,0,47.39610672,8.6481294632,0,0,0,0,0,0,0,0,0,0,0
1.49441486806029E+018,0,1.49441486806029E+018,gps,0,0,47.39610672,8.6481294632,0,0,0,0,0,0,0,0,0,0,0
1.49441486816072E+018,0,1.49441486816072E+018,gps,0,0,47.39610672,8.6481294632,0,0,0,0,0,0,0,0,0,0,0
1.49441486826035E+018,0,1.49441486826035E+018,gps,0,0,47.39610672,8.6481294632,0,0,0,0,0,0,0,0,0,0,0
1.49441486836035E+018,0,1.49441486836035E+018,gps,0,0,47.39610672,8.6481294632,0,0,0,0,0,0,0,0,0,0,0
1.49441486846035E+018,0,1.49441486846035E+018,gps,0,0,47.39610672,8.6481294632,0,0,0,0,0,0,0,0,0,0,0
1.49441486856038E+018,0,1.49441486856038E+018,gps,0,0,47.39610672,8.6481294632,0,0,0,0,0,0,0,0,0,0,0
1.49441486866026E+018,0,1.49441486866026E+018,gps,0,0,47.39610672,8.6481294632,0,0,0,0,0,0,0,0,0,0,0
1.49441486876036E+018,0,1.49441486876036E+018,gps,0,0,47.39610672,8.6481294632,0,0,0,0,0,0,0,0,0,0,0
1.49441486886036E+018,0,1.49441486886036E+018,gps,0,0,47.39610672,8.6481294632,0,0,0,0,0,0,0,0,0,0,0
1.49441486896032E+018,0,1.49441486896032E+018,gps,0,0,47.39610672,8.6481294632,0,0,0,0,0,0,0,0,0,0,0
1.49441486906024E+018,0,1.49441486906024E+018,gps,0,0,47.39610672,8.6481294632,0,0,0,0,0,0,0,0,0,0,0
1.4944148691607E+018,0,1.4944148691607E+018,gps,0,0,47.39610672,8.6481294632,0,0,0,0,0,0,0,0,0,0,0
1.49441486926026E+018,0,1.49441486926026E+018,gps,0,0,47.39610672,8.6481294632,0,0,0,0,0,0,0,0,0,0,0
1.49441486936035E+018,0,1.49441486936035E+018,gps,0,0,47.39610672,8.6481294632,0,0,0,0,0,0,0,0,0,0,0
1.49441486946026E+018,0,1.49441486946026E+018,gps,0,0,47.39610672,8.64812850952,0,0,0,0,0,0,0,0,0,0,0
1.49441486956032E+018,0,1.49441486956032E+018,gps,0,0,47.39610672,8.64812850952,0,0,0,0,0,0,0,0,0,0,0
1.4944148696603E+018,0,1.4944148696603E+018,gps,0,0,47.39610672,8.64812850952,0,0,0,0,0,0,0,0,0,0,0
1.49441486976036E+018,0,1.49441486976036E+018,gps,0,0,47.39610672,8.64812850952,0,0,0,0,0,0,0,0,0,0,0
1.49441486986028E+018,0,1.49441486986028E+018,gps,0,0,47.39610672,8.64812850952,0,0,0,0,0,0,0,0,0,0,0
1.49441486996028E+018,0,1.49441486996028E+018,gps,0,0,47.39610672,8.64812850952,0,0,0,0,0,0,0,0,0,0,0
1.49441487006026E+018,0,1.49441487006026E+018,gps,0,0,47.39610672,8.64812850952,0,0,0,0,0,0,0,0,0,0,0
1.49441487016066E+018,0,1.49441487016066E+018,gps,0,0,47.39610672,8.64812850952,0,0,0,0,0,0,0,0,0,0,0
1.49441487026031E+018,0,1.49441487026031E+018,gps,0,0,47.39610672,8.64812850952,0,0,0,0,0,0,0,0,0,0,0
1.49441487036027E+018,0,1.49441487036027E+018,gps,0,0,47.39610672,8.64812850952,0,0,0,0,0,0,0,0,0,0,0
1.49441487046029E+018,0,1.49441487046029E+018,gps,0,0,47.39610672,8.64812850952,0,0,0,0,0,0,0,0,0,0,0
1.49441487056029E+018,0,1.49441487056029E+018,gps,0,0,47.39610672,8.64812850952,0,0,0,0,0,0,0,0,0,0,0
1.49441487066027E+018,0,1.49441487066027E+018,gps,0,0,47.39610672,8.64812850952,0,0,0,0,0,0,0,0,0,0,0
1.49441487076028E+018,0,1.49441487076028E+018,gps,0,0,47.39610672,8.64812850952,0,0,0,0,0,0,0,0,0,0,0
1.49441487086027E+018,0,1.49441487086027E+018,gps,0,0,47.39610672,8.64812850952,0,0,0,0,0,0,0,0,0,0,0
1.49441487096027E+018,0,1.49441487096027E+018,gps,0,0,47.39610672,8.64812850952,0,0,0,0,0,0,0,0,0,0,0
1.49441487106027E+018,0,1.49441487106027E+018,gps,0,0,47.39610672,8.64812850952,0,0,0,0,0,0,0,0,0,0,0
1.49441487116058E+018,0,1.49441487116058E+018,gps,0,0,47.39610672,8.64812850952,0,0,0,0,0,0,0,0,0,0,0
1.49441487126025E+018,0,1.49441487126025E+018,gps,0,0,47.39610672,8.64812850952,0,0,0,0,0,0,0,0,0,0,0
1.49441487136032E+018,0,1.49441487136032E+018,gps,0,0,47.39610672,8.64812850952,0,0,0,0,0,0,0,0,0,0,0
1.49441487146026E+018,0,1.49441487146026E+018,gps,0,0,47.39610672,8.64812850952,0,0,0,0,0,0,0,0,0,0,0
1.49441487156022E+018,0,1.49441487156022E+018,gps,0,0,47.39610672,8.64812850952,0,0,0,0,0,0,0,0,0,0,0
1.49441487166024E+018,0,1.49441487166024E+018,gps,0,0,47.39610672,8.64812850952,0,0,0,0,0,0,0,0,0,0,0
1.49441487176026E+018,0,1.49441487176026E+018,gps,0,0,47.39610672,8.64812850952,0,0,0,0,0,0,0,0,0,0,0
1.49441487186021E+018,0,1.49441487186021E+018,gps,0,0,47.39610672,8.64812850952,0,0,0,0,0,0,0,0,0,0,0
1.49441487196022E+018,0,1.49441487196022E+018,gps,0,0,47.39610672,8.64812850952,0,0,0,0,0,0,0,0,0,0,0
1.49441487206019E+018,0,1.49441487206019E+018,gps,0,0,47.39610672,8.64812850952,0,0,0,0,0,0,0,0,0,0,0
1.49441487216059E+018,0,1.49441487216059E+018,gps,0,0,47.39610672,8.64812850952,0,0,0,0,0,0,0,0,0,0,0
1.49441487226028E+018,0,1.49441487226028E+018,gps,0,0,47.39610672,8.64812850952,0,0,0,0,0,0,0,0,0,0,0
1.49441487236023E+018,0,1.49441487236023E+018,gps,0,0,47.39610672,8.64812850952,0,0,0,0,0,0,0,0,0,0,0
1.49441487246018E+018,0,1.49441487246018E+018,gps,0,0,47.39610672,8.64812850952,0,0,0,0,0,0,0,0,0,0,0
1.49441487256022E+018,0,1.49441487256022E+018,gps,0,0,47.39610672,8.64812850952,0,0,0,0,0,0,0,0,0,0,0
1.49441487266019E+018,0,1.49441487266019E+018,gps,0,0,47.39610672,8.64812850952,0,0,0,0,0,0,0,0,0,0,0
1.49441487276026E+018,0,1.49441487276026E+018,gps,0,0,47.39610672,8.64812850952,0,0,0,0,0,0,0,0,0,0,0
1.49441487286023E+018,0,1.49441487286023E+018,gps,0,0,47.39610672,8.64812850952,0,0,0,0,0,0,0,0,0,0,0
1.4944148729602E+018,0,1.4944148729602E+018,gps,0,0,47.39610672,8.64812850952,0,0,0,0,0,0,0,0,0,0,0
1.4944148730601E+018,0,1.4944148730601E+018,gps,0,0,47.39610672,8.64812850952,0,0,0,0,0,0,0,0,0,0,0
1.49441487316056E+018,0,1.49441487316056E+018,gps,0,0,47.39610672,8.64812850952,0,0,0,0,0,0,0,0,0,0,0
1.49441487326016E+018,0,1.49441487326016E+018,gps,0,0,47.39610672,8.64812850952,0,0,0,0,0,0,0,0,0,0,0
1.49441487336024E+018,0,1.49441487336024E+018,gps,0,0,47.39610672,8.64812850952,0,0,0,0,0,0,0,0,0,0,0
1.4944148734602E+018,0,1.4944148734602E+018,gps,0,0,47.39610672,8.64812850952,0,0,0,0,0,0,0,0,0,0,0
1.49441487356013E+018,0,1.49441487356013E+018,gps,0,0,47.39610672,8.64812850952,0,0,0,0,0,0,0,0,0,0,0
1.49441487366011E+018,0,1.49441487366011E+018,gps,0,0,47.39610672,8.64812850952,0,0,0,0,0,0,0,0,0,0,0
1.49441487376019E+018,0,1.49441487376019E+018,gps,0,0,47.39610672,8.64812850952,0,0,0,0,0,0,0,0,0,0,0
1.49441487386017E+018,0,1.49441487386017E+018,gps,0,0,47.39610672,8.64812850952,0,0,0,0,0,0,0,0,0,0,0
1.4944148739602E+018,0,1.4944148739602E+018,gps,0,0,47.39610672,8.64812850952,0,0,0,0,0,0,0,0,0,0,0
1.49441487406016E+018,0,1.49441487406016E+018,gps,0,0,47.39610672,8.64812850952,0,0,0,0,0,0,0,0,0,0,0
1.49441487416054E+018,0,1.49441487416054E+018,gps,0,0,47.39610672,8.64812850952,0,0,0,0,0,0,0,0,0,0,0
1.4944148742602E+018,0,1.4944148742602E+018,gps,0,0,47.39610672,8.64812850952,0,0,0,0,0,0,0,0,0,0,0
1.49441487436023E+018,0,1.49441487436023E+018,gps,0,0,47.39610672,8.64812850952,0,0,0,0,0,0,0,0,0,0,0
1.49441487446018E+018,0,1.49441487446018E+018,gps,0,0,47.39610672,8.64812850952,0,0,0,0,0,0,0,0,0,0,0
1.49441487456021E+018,0,1.49441487456021E+018,gps,0,0,47.39610672,8.64812850952,0,0,0,0,0,0,0,0,0,0,0
1.49441487466013E+018,0,1.49441487466013E+018,gps,0,0,47.39610672,8.64812850952,0,0,0,0,0,0,0,0,0,0,0
1.49441487476015E+018,0,1.49441487476015E+018,gps,0,0,47.39610672,8.64812850952,0,0,0,0,0,0,0,0,0,0,0
1.4944148748601E+018,0,1.4944148748601E+018,gps,0,0,47.39610672,8.64812850952,0,0,0,0,0,0,0,0,0,0,0
1.49441487496017E+018,0,1.49441487496017E+018,gps,0,0,47.39610672,8.64812850952,0,0,0,0,0,0,0,0,0,0,0
1.49441487506021E+018,0,1.49441487506021E+018,gps,0,0,47.39610672,8.64812850952,0,0,0,0,0,0,0,0,0,0,0
1.49441487516056E+018,0,1.49441487516056E+018,gps,0,0,47.39610672,8.64812850952,0,0,0,0,0,0,0,0,0,0,0
1.49441487526015E+018,0,1.49441487526015E+018,gps,0,0,47.39610672,8.64812850952,0,0,0,0,0,0,0,0,0,0,0
1.49441487536009E+018,0,1.49441487536009E+018,gps,0,0,47.39610672,8.64812850952,0,0,0,0,0,0,0,0,0,0,0
1.4944148754604E+018,0,1.4944148754604E+018,gps,0,0,47.39610672,8.64812850952,0,0,0,0,0,0,0,0,0,0,0
1.49441487556023E+018,0,1.49441487556023E+018,gps,0,0,47.39610672,8.64812850952,0,0,0,0,0,0,0,0,0,0,0
1.49441487566011E+018,0,1.49441487566011E+018,gps,0,0,47.39610672,8.64812850952,0,0,0,0,0,0,0,0,0,0,0
1.49441487576008E+018,0,1.49441487576008E+018,gps,0,0,47.39610672,8.64812850952,0,0,0,0,0,0,0,0,0,0,0
1.49441487586017E+018,0,1.49441487586017E+018,gps,0,0,47.39610672,8.64812850952,0,0,0,0,0,0,0,0,0,0,0
1.49441487596006E+018,0,1.49441487596006E+018,gps,0,0,47.39610672,8.64812850952,0,0,0,0,0,0,0,0,0,0,0
1.4944148760601E+018,0,1.4944148760601E+018,gps,0,0,47.39610672,8.64812850952,0,0,0,0,0,0,0,0,0,0,0
1.49441487616046E+018,0,1.49441487616046E+018,gps,0,0,47.39610672,8.64812850952,0,0,0,0,0,0,0,0,0,0,0
1.49441487626009E+018,0,1.49441487626009E+018,gps,0,0,47.39610672,8.64812850952,0,0,0,0,0,0,0,0,0,0,0
1.49441487636021E+018,0,1.49441487636021E+018,gps,0,0,47.39610672,8.64812850952,0,0,0,0,0,0,0,0,0,0,0
1.4944148764601E+018,0,1.4944148764601E+018,gps,0,0,47.39610672,8.64812850952,0,0,0,0,0,0,0,0,0,0,0
1.49441487656011E+018,0,1.49441487656011E+018,gps,0,0,47.39610672,8.64812850952,0,0,0,0,0,0,0,0,0,0,0
1.49441487666021E+018,0,1.49441487666021E+018,gps,0,0,47.39610672,8.64812850952,0,0,0,0,0,0,0,0,0,0,0
1.49441487676006E+018,0,1.49441487676006E+018,gps,0,0,47.39610672,8.64812850952,0,0,0,0,0,0,0,0,0,0,0
1.49441487686007E+018,0,1.49441487686007E+018,gps,0,0,47.39610672,8.64812850952,0,0,0,0,0,0,0,0,0,0,0
1.49441487696025E+018,0,1.49441487696025E+018,gps,0,0,47.39610672,8.64812850952,0,0,0,0,0,0,0,0,0,0,0
1.49441487706016E+018,0,1.49441487706016E+018,gps,0,0,47.39610672,8.64812850952,0,0,0,0,0,0,0,0,0,0,0
1.49441487716051E+018,0,1.49441487716051E+018,gps,0,0,47.39610672,8.64812850952,0,0,0,0,0,0,0,0,0,0,0
1.49441487726018E+018,0,1.49441487726018E+018,gps,0,0,47.39610672,8.64812850952,0,0,0,0,0,0,0,0,0,0,0
1.49441487736019E+018,0,1.49441487736019E+018,gps,0,0,47.39610672,8.64812850952,0,0,0,0,0,0,0,0,0,0,0
1.49441487746004E+018,0,1.49441487746004E+018,gps,0,0,47.39610672,8.64812850952,0,0,0,0,0,0,0,0,0,0,0
1.49441487756009E+018,0,1.49441487756009E+018,gps,0,0,47.39610672,8.64812850952,0,0,0,0,0,0,0,0,0,0,0
1.49441487766004E+018,0,1.49441487766004E+018,gps,0,0,47.39610672,8.64812850952,0,0,0,0,0,0,0,0,0,0,0
1.49441487776013E+018,0,1.49441487776013E+018,gps,0,0,47.39610672,8.64812850952,0,0,0,0,0,0,0,0,0,0,0
1.49441487786016E+018,0,1.49441487786016E+018,gps,0,0,47.39610672,8.64812850952,0,0,0,0,0,0,0,0,0,0,0
1.49441487796012E+018,0,1.49441487796012E+018,gps,0,0,47.39610672,8.64812850952,0,0,0,0,0,0,0,0,0,0,0
1.49441487806011E+018,0,1.49441487806011E+018,gps,0,0,47.39610672,8.64812850952,0,0,0,0,0,0,0,0,0,0,0
1.49441487816051E+018,0,1.49441487816051E+018,gps,0,0,47.39610672,8.64812850952,0,0,0,0,0,0,0,0,0,0,0
1.49441487826009E+018,0,1.49441487826009E+018,gps,0,0,47.39610672,8.64812850952,0,0,0,0,0,0,0,0,0,0,0
1.49441487836011E+018,0,1.49441487836011E+018,gps,0,0,47.39610672,8.64812850952,0,0,0,0,0,0,0,0,0,0,0
1.49441487846006E+018,0,1.49441487846006E+018,gps,0,0,47.39610672,8.64812850952,0,0,0,0,0,0,0,0,0,0,0
1.49441487856011E+018,0,1.49441487856011E+018,gps,0,0,47.39610672,8.64812850952,0,0,0,0,0,0,0,0,0,0,0
1.49441487866011E+018,0,1.49441487866011E+018,gps,0,0,47.39610672,8.64812850952,0,0,0,0,0,0,0,0,0,0,0
1.49441487876016E+018,0,1.49441487876016E+018,gps,0,0,47.39610672,8.64812850952,0,0,0,0,0,0,0,0,0,0,0
1.49441487886011E+018,0,1.49441487886011E+018,gps,0,0,47.39610672,8.64812850952,0,0,0,0,0,0,0,0,0,0,0
1.49441487896015E+018,0,1.49441487896015E+018,gps,0,0,47.39610672,8.64812850952,0,0,0,0,0,0,0,0,0,0,0
1.49441487906016E+018,0,1.49441487906016E+018,gps,0,0,47.39610672,8.64812850952,0,0,0,0,0,0,0,0,0,0,0
1.49441487916043E+018,0,1.49441487916043E+018,gps,0,0,47.39610672,8.64812850952,0,0,0,0,0,0,0,0,0,0,0
1.49441487926012E+018,0,1.49441487926012E+018,gps,0,0,47.39610672,8.64812850952,0,0,0,0,0,0,0,0,0,0,0
1.49441487936007E+018,0,1.49441487936007E+018,gps,0,0,47.39610672,8.64812850952,0,0,0,0,0,0,0,0,0,0,0
1.49441487946015E+018,0,1.49441487946015E+018,gps,0,0,47.39610672,8.64812850952,0,0,0,0,0,0,0,0,0,0,0
1.49441487956014E+018,0,1.49441487956014E+018,gps,0,0,47.39610672,8.64812850952,0,0,0,0,0,0,0,0,0,0,0
1.49441487966009E+018,0,1.49441487966009E+018,gps,0,0,47.39610672,8.64812850952,0,0,0,0,0,0,0,0,0,0,0
1.49441487976011E+018,0,1.49441487976011E+018,gps,0,0,47.39610672,8.64812850952,0,0,0,0,0,0,0,0,0,0,0
1.49441487986013E+018,0,1.49441487986013E+018,gps,0,0,47.39610672,8.64812850952,0,0,0,0,0,0,0,0,0,0,0
1.49441487996007E+018,0,1.49441487996007E+018,gps,0,0,47.39610672,8.64812850952,0,0,0,0,0,0,0,0,0,0,0
1.49441488006009E+018,0,1.49441488006009E+018,gps,0,0,47.39610672,8.64812850952,0,0,0,0,0,0,0,0,0,0,0
1.4944148801604E+018,0,1.4944148801604E+018,gps,0,0,47.39610672,8.64812850952,0,0,0,0,0,0,0,0,0,0,0
1.4944148802601E+018,0,1.4944148802601E+018,gps,0,0,47.39610672,8.64812850952,0,0,0,0,0,0,0,0,0,0,0
1.49441488036013E+018,0,1.49441488036013E+018,gps,0,0,47.39610672,8.64812850952,0,0,0,0,0,0,0,0,0,0,0
1.49441488046008E+018,0,1.49441488046008E+018,gps,0,0,47.39610672,8.64812850952,0,0,0,0,0,0,0,0,0,0,0
1.4944148805601E+018,0,1.4944148805601E+018,gps,0,0,47.39610672,8.64812850952,0,0,0,0,0,0,0,0,0,0,0
1.4944148806601E+018,0,1.4944148806601E+018,gps,0,0,47.39610672,8.64812850952,0,0,0,0,0,0,0,0,0,0,0
1.49441488076012E+018,0,1.49441488076012E+018,gps,0,0,47.39610672,8.64812850952,0,0,0,0,0,0,0,0,0,0,0
1.49441488086007E+018,0,1.49441488086007E+018,gps,0,0,47.39610672,8.64812850952,0,0,0,0,0,0,0,0,0,0,0
1.49441488096006E+018,0,1.49441488096006E+018,gps,0,0,47.39610672,8.64812850952,0,0,0,0,0,0,0,0,0,0,0
1.49441488106013E+018,0,1.49441488106013E+018,gps,0,0,47.39610672,8.64812755585,0,0,0,0,0,0,0,0,0,0,0
1.49441488116036E+018,0,1.49441488116036E+018,gps,0,0,47.39610672,8.64812755585,0,0,0,0,0,0,0,0,0,0,0
1.49441488126005E+018,0,1.49441488126005E+018,gps,0,0,47.3961029053,8.64812660217,0,0,0,0,0,0,0,0,0,0,0
1.49441488136005E+018,0,1.49441488136005E+018,gps,0,0,47.3961029053,8.64812660217,0,0,0,0,0,0,0,0,0,0,0
1.49441488146002E+018,0,1.49441488146002E+018,gps,0,0,47.3961029053,8.64812374115,0,0,0,0,0,0,0,0,0,0,0
1.4944148815601E+018,0,1.4944148815601E+018,gps,0,0,47.3961029053,8.64812374115,0,0,0,0,0,0,0,0,0,0,0
1.49441488166002E+018,0,1.49441488166002E+018,gps,0,0,47.3960990906,8.64811897278,0,0,0,0,0,0,0,0,0,0,0
1.49441488176008E+018,0,1.49441488176008E+018,gps,0,0,47.3960990906,8.64811897278,0,0,0,0,0,0,0,0,0,0,0
1.49441488186005E+018,0,1.49441488186005E+018,gps,0,0,47.3960914612,8.64811325073,0,0,0,0,0,0,0,0,0,0,0
1.49441488196008E+018,0,1.49441488196008E+018,gps,0,0,47.3960914612,8.64811325073,0,0,0,0,0,0,0,0,0,0,0
1.49441488206004E+018,0,1.49441488206004E+018,gps,0,0,47.3960914612,8.64810562134,0,0,0,0,0,0,0,0,0,0,0
1.49441488216031E+018,0,1.49441488216031E+018,gps,0,0,47.3960914612,8.64810562134,0,0,0,0,0,0,0,0,0,0,0
1.49441488225997E+018,0,1.49441488225997E+018,gps,0,0,47.3960838318,8.64809608459,0,0,0,0,0,0,0,0,0,0,0
1.49441488236009E+018,0,1.49441488236009E+018,gps,0,0,47.3960838318,8.64809608459,0,0,0,0,0,0,0,0,0,0,0
1.49441488246006E+018,0,1.49441488246006E+018,gps,0,0,47.3960723877,8.64808368683,0,0,0,0,0,0,0,0,0,0,0
1.49441488256007E+018,0,1.49441488256007E+018,gps,0,0,47.3960723877,8.64808368683,0,0,0,0,0,0,0,0,0,0,0
1.49441488266004E+018,0,1.49441488266004E+018,gps,0,0,47.396068573,8.64806938171,0,0,0,0,0,0,0,0,0,0,0
1.49441488275998E+018,0,1.49441488275998E+018,gps,0,0,47.396068573,8.64806938171,0,0,0,0,0,0,0,0,0,0,0
1.49441488286001E+018,0,1.49441488286001E+018,gps,0,0,47.3960571289,8.64805316925,0,0,0,0,0,0,0,0,0,0,0
1.49441488296008E+018,0,1.49441488296008E+018,gps,0,0,47.3960571289,8.64805316925,0,0,0,0,0,0,0,0,0,0,0
1.49441488305997E+018,0,1.49441488305997E+018,gps,0,0,47.3960533142,8.64803314209,0,0,0,0,0,0,0,0,0,0,0
1.49441488316025E+018,0,1.49441488316025E+018,gps,0,0,47.3960533142,8.64803314209,0,0,0,0,0,0,0,0,0,0,0
1.49441488326006E+018,0,1.49441488326006E+018,gps,0,0,47.3960456848,8.64801120758,0,0,0,0,0,0,0,0,0,0,0
1.49441488336004E+018,0,1.49441488336004E+018,gps,0,0,47.3960456848,8.64801120758,0,0,0,0,0,0,0,0,0,0,0
1.49441488346006E+018,0,1.49441488346006E+018,gps,0,0,47.3960418701,8.64798927307,0,0,0,0,0,0,0,0,0,0,0
1.49441488356006E+018,0,1.49441488356006E+018,gps,0,0,47.3960418701,8.64798927307,0,0,0,0,0,0,0,0,0,0,0
1.49441488366008E+018,0,1.49441488366008E+018,gps,0,0,47.3960380554,8.64796733856,0,0,0,0,0,0,0,0,0,0,0
1.49441488376002E+018,0,1.49441488376002E+018,gps,0,0,47.3960380554,8.64796733856,0,0,0,0,0,0,0,0,0,0,0
1.49441488385999E+018,0,1.49441488385999E+018,gps,0,0,47.3960342407,8.64794445038,0,0,0,0,0,0,0,0,0,0,0
1.49441488396E+018,0,1.49441488396E+018,gps,0,0,47.3960342407,8.64794445038,0,0,0,0,0,0,0,0,0,0,0
1.49441488406004E+018,0,1.49441488406004E+018,gps,0,0,47.3960227966,8.64792537689,0,0,0,0,0,0,0,0,0,0,0
1.4944148841603E+018,0,1.4944148841603E+018,gps,0,0,47.3960227966,8.64792537689,0,0,0,0,0,0,0,0,0,0,0
1.49441488426002E+018,0,1.49441488426002E+018,gps,0,0,47.3960113525,8.64790821075,0,0,0,0,0,0,0,0,0,0,0
1.49441488436001E+018,0,1.49441488436001E+018,gps,0,0,47.3960113525,8.64790821075,0,0,0,0,0,0,0,0,0,0,0
1.49441488445998E+018,0,1.49441488445998E+018,gps,0,0,47.3959960938,8.64789104462,0,0,0,0,0,0,0,0,0,0,0
1.49441488455997E+018,0,1.49441488455997E+018,gps,0,0,47.3959960938,8.64789104462,0,0,0,0,0,0,0,0,0,0,0
1.49441488466E+018,0,1.49441488466E+018,gps,0,0,47.3959846497,8.64787101746,0,0,0,0,0,0,0,0,0,0,0
1.49441488476004E+018,0,1.49441488476004E+018,gps,0,0,47.3959846497,8.64787101746,0,0,0,0,0,0,0,0,0,0,0
1.49441488486003E+018,0,1.49441488486003E+018,gps,0,0,47.3959732056,8.64784812927,0,0,0,0,0,0,0,0,0,0,0
1.49441488495998E+018,0,1.49441488495998E+018,gps,0,0,47.3959732056,8.64784812927,0,0,0,0,0,0,0,0,0,0,0
1.49441488506001E+018,0,1.49441488506001E+018,gps,0,0,47.3959617615,8.64782238007,0,0,0,0,0,0,0,0,0,0,0
1.49441488516043E+018,0,1.49441488516043E+018,gps,0,0,47.3959617615,8.64782238007,0,0,0,0,0,0,0,0,0,0,0
1.49441488525999E+018,0,1.49441488525999E+018,gps,0,0,47.3959541321,8.64779567719,0,0,0,0,0,0,0,0,0,0,0
1.49441488535993E+018,0,1.49441488535993E+018,gps,0,0,47.3959541321,8.64779567719,0,0,0,0,0,0,0,0,0,0,0
1.49441488545997E+018,0,1.49441488545997E+018,gps,0,0,47.3959465027,8.64776611328,0,0,0,0,0,0,0,0,0,0,0
1.49441488555993E+018,0,1.49441488555993E+018,gps,0,0,47.3959465027,8.64776611328,0,0,0,0,0,0,0,0,0,0,0
1.49441488565996E+018,0,1.49441488565996E+018,gps,0,0,47.3959388733,8.64773464203,0,0,0,0,0,0,0,0,0,0,0
1.49441488575995E+018,0,1.49441488575995E+018,gps,0,0,47.3959388733,8.64773464203,0,0,0,0,0,0,0,0,0,0,0
1.49441488585992E+018,0,1.49441488585992E+018,gps,0,0,47.3959350586,8.6477022171,0,0,0,0,0,0,0,0,0,0,0
1.49441488595993E+018,0,1.49441488595993E+018,gps,0,0,47.3959350586,8.6477022171,0,0,0,0,0,0,0,0,0,0,0
1.49441488605992E+018,0,1.49441488605992E+018,gps,0,0,47.3959312439,8.64766979218,0,0,0,0,0,0,0,0,0,0,0
1.49441488616025E+018,0,1.49441488616025E+018,gps,0,0,47.3959312439,8.64766979218,0,0,0,0,0,0,0,0,0,0,0
1.49441488625994E+018,0,1.49441488625994E+018,gps,0,0,47.3959274292,8.6476354599,0,0,0,0,0,0,0,0,0,0,0
1.49441488635996E+018,0,1.49441488635996E+018,gps,0,0,47.3959274292,8.6476354599,0,0,0,0,0,0,0,0,0,0,0
1.49441488645997E+018,0,1.49441488645997E+018,gps,0,0,47.3959236145,8.64759922028,0,0,0,0,0,0,0,0,0,0,0
1.49441488655999E+018,0,1.49441488655999E+018,gps,0,0,47.3959236145,8.64759922028,0,0,0,0,0,0,0,0,0,0,0
1.49441488665998E+018,0,1.49441488665998E+018,gps,0,0,47.3959236145,8.64756298065,0,0,0,0,0,0,0,0,0,0,0
1.49441488676001E+018,0,1.49441488676001E+018,gps,0,0,47.3959236145,8.64756298065,0,0,0,0,0,0,0,0,0,0,0
1.49441488685996E+018,0,1.49441488685996E+018,gps,0,0,47.3959274292,8.6475276947,0,0,0,0,0,0,0,0,0,0,0
1.49441488695991E+018,0,1.49441488695991E+018,gps,0,0,47.3959274292,8.6475276947,0,0,0,0,0,0,0,0,0,0,0
1.49441488705999E+018,0,1.49441488705999E+018,gps,0,0,47.3959274292,8.64749145508,0,0,0,0,0,0,0,0,0,0,0
1.49441488716031E+018,0,1.49441488716031E+018,gps,0,0,47.3959274292,8.64749145508,0,0,0,0,0,0,0,0,0,0,0
1.49441488725995E+018,0,1.49441488725995E+018,gps,0,0,47.3959274292,8.64745521545,0,0,0,0,0,0,0,0,0,0,0
1.49441488735996E+018,0,1.49441488735996E+018,gps,0,0,47.3959274292,8.64745521545,0,0,0,0,0,0,0,0,0,0,0
1.49441488745992E+018,0,1.49441488745992E+018,gps,0,0,47.3959236145,8.64742088318,0,0,0,0,0,0,0,0,0,0,0
1.49441488755995E+018,0,1.49441488755995E+018,gps,0,0,47.3959236145,8.64742088318,0,0,0,0,0,0,0,0,0,0,0
1.49441488765993E+018,0,1.49441488765993E+018,gps,0,0,47.3959197998,8.6473903656,0,0,0,0,0,0,0,0,0,0,0
1.49441488775996E+018,0,1.49441488775996E+018,gps,0,0,47.3959197998,8.6473903656,0,0,0,0,0,0,0,0,0,0,0
1.49441488785987E+018,0,1.49441488785987E+018,gps,0,0,47.3959159851,8.64736366272,0,0,0,0,0,0,0,0,0,0,0
1.49441488795995E+018,0,1.49441488795995E+018,gps,0,0,47.3959159851,8.64736366272,0,0,0,0,0,0,0,0,0,0,0
1.49441488805987E+018,0,1.49441488805987E+018,gps,0,0,47.3959197998,8.64733791351,0,0,0,0,0,0,0,0,0,0,0
1.49441488816027E+018,0,1.49441488816027E+018,gps,0,0,47.3959197998,8.64733791351,0,0,0,0,0,0,0,0,0,0,0
1.49441488825995E+018,0,1.49441488825995E+018,gps,0,0,47.3959197998,8.64731502533,0,0,0,0,0,0,0,0,0,0,0
1.49441488835991E+018,0,1.49441488835991E+018,gps,0,0,47.3959197998,8.64731502533,0,0,0,0,0,0,0,0,0,0,0
1.49441488845994E+018,0,1.49441488845994E+018,gps,0,0,47.3959236145,8.64729404449,0,0,0,0,0,0,0,0,0,0,0
1.49441488855994E+018,0,1.49441488855994E+018,gps,0,0,47.3959236145,8.64729404449,0,0,0,0,0,0,0,0,0,0,0
1.49441488865988E+018,0,1.49441488865988E+018,gps,0,0,47.3959274292,8.64727687836,0,0,0,0,0,0,0,0,0,0,0
1.49441488875987E+018,0,1.49441488875987E+018,gps,0,0,47.3959274292,8.64727687836,0,0,0,0,0,0,0,0,0,0,0
1.4944148888599E+018,0,1.4944148888599E+018,gps,0,0,47.3959312439,8.64726066589,0,0,0,0,0,0,0,0,0,0,0
1.49441488895987E+018,0,1.49441488895987E+018,gps,0,0,47.3959312439,8.64726066589,0,0,0,0,0,0,0,0,0,0,0
1.49441488905989E+018,0,1.49441488905989E+018,gps,0,0,47.3959274292,8.64724731445,0,0,0,0,0,0,0,0,0,0,0
1.49441488916026E+018,0,1.49441488916026E+018,gps,0,0,47.3959274292,8.64724731445,0,0,0,0,0,0,0,0,0,0,0
1.49441488925985E+018,0,1.49441488925985E+018,gps,0,0,47.3959236145,8.64723587036,0,0,0,0,0,0,0,0,0,0,0
1.49441488935986E+018,0,1.49441488935986E+018,gps,0,0,47.3959236145,8.64723587036,0,0,0,0,0,0,0,0,0,0,0
1.49441488945982E+018,0,1.49441488945982E+018,gps,0,0,47.3959159851,8.64722824097,0,0,0,0,0,0,0,0,0,0,0
1.49441488955992E+018,0,1.49441488955992E+018,gps,0,0,47.3959159851,8.64722824097,0,0,0,0,0,0,0,0,0,0,0
1.49441488965984E+018,0,1.49441488965984E+018,gps,0,0,47.3959083557,8.64722442627,0,0,0,0,0,0,0,0,0,0,0
1.49441488975992E+018,0,1.49441488975992E+018,gps,0,0,47.3959083557,8.64722442627,0,0,0,0,0,0,0,0,0,0,0
1.49441488985986E+018,0,1.49441488985986E+018,gps,0,0,47.3959007263,8.64722251892,0,0,0,0,0,0,0,0,0,0,0
1.49441488995989E+018,0,1.49441488995989E+018,gps,0,0,47.3959007263,8.64722251892,0,0,0,0,0,0,0,0,0,0,0
1.49441489005984E+018,0,1.49441489005984E+018,gps,0,0,47.3958930969,8.64722442627,0,0,0,0,0,0,0,0,0,0,0
1.4944148901602E+018,0,1.4944148901602E+018,gps,0,0,47.3958930969,8.64722442627,0,0,0,0,0,0,0,0,0,0,0
1.49441489025984E+018,0,1.49441489025984E+018,gps,0,0,47.3958854675,8.64722824097,0,0,0,0,0,0,0,0,0,0,0
1.49441489035983E+018,0,1.49441489035983E+018,gps,0,0,47.3958854675,8.64722824097,0,0,0,0,0,0,0,0,0,0,0
1.49441489045986E+018,0,1.49441489045986E+018,gps,0,0,47.3958778381,8.64723587036,0,0,0,0,0,0,0,0,0,0,0
1.49441489055994E+018,0,1.49441489055994E+018,gps,0,0,47.3958778381,8.64723587036,0,0,0,0,0,0,0,0,0,0,0
1.49441489065985E+018,0,1.49441489065985E+018,gps,0,0,47.3958740234,8.64724636078,0,0,0,0,0,0,0,0,0,0,0
1.49441489075983E+018,0,1.49441489075983E+018,gps,0,0,47.3958740234,8.64724636078,0,0,0,0,0,0,0,0,0,0,0
1.4944148908598E+018,0,1.4944148908598E+018,gps,0,0,47.3958740234,8.64725971222,0,0,0,0,0,0,0,0,0,0,0
1.49441489095977E+018,0,1.49441489095977E+018,gps,0,0,47.3958740234,8.64725971222,0,0,0,0,0,0,0,0,0,0,0
1.49441489105981E+018,0,1.49441489105981E+018,gps,0,0,47.3958740234,8.64727306366,0,0,0,0,0,0,0,0,0,0,0
1.49441489116023E+018,0,1.49441489116023E+018,gps,0,0,47.3958740234,8.64727306366,0,0,0,0,0,0,0,0,0,0,0
1.49441489125984E+018,0,1.49441489125984E+018,gps,0,0,47.3958740234,8.6472864151,0,0,0,0,0,0,0,0,0,0,0
1.49441489136008E+018,0,1.49441489136008E+018,gps,0,0,47.3958740234,8.6472864151,0,0,0,0,0,0,0,0,0,0,0
1.49441489145989E+018,0,1.49441489145989E+018,gps,0,0,47.3958740234,8.64730167389,0,0,0,0,0,0,0,0,0,0,0
1.49441489155974E+018,0,1.49441489155974E+018,gps,0,0,47.3958740234,8.64730167389,0,0,0,0,0,0,0,0,0,0,0
1.49441489165982E+018,0,1.49441489165982E+018,gps,0,0,47.3958740234,8.64731884003,0,0,0,0,0,0,0,0,0,0,0
1.49441489175981E+018,0,1.49441489175981E+018,gps,0,0,47.3958740234,8.64731884003,0,0,0,0,0,0,0,0,0,0,0
1.49441489185973E+018,0,1.49441489185973E+018,gps,0,0,47.3958740234,8.64733791351,0,0,0,0,0,0,0,0,0,0,0
1.49441489195982E+018,0,1.49441489195982E+018,gps,0,0,47.3958740234,8.64733791351,0,0,0,0,0,0,0,0,0,0,0
1.49441489205981E+018,0,1.49441489205981E+018,gps,0,0,47.3958740234,8.64735889435,0,0,0,0,0,0,0,0,0,0,0
1.49441489216013E+018,0,1.49441489216013E+018,gps,0,0,47.3958740234,8.64735889435,0,0,0,0,0,0,0,0,0,0,0
1.49441489225988E+018,0,1.49441489225988E+018,gps,0,0,47.3958740234,8.64738368988,0,0,0,0,0,0,0,0,0,0,0
1.49441489235978E+018,0,1.49441489235978E+018,gps,0,0,47.3958740234,8.64738368988,0,0,0,0,0,0,0,0,0,0,0
1.49441489245992E+018,0,1.49441489245992E+018,gps,0,0,47.3958778381,8.64740943909,0,0,0,0,0,0,0,0,0,0,0
1.49441489255987E+018,0,1.49441489255987E+018,gps,0,0,47.3958778381,8.64740943909,0,0,0,0,0,0,0,0,0,0,0
1.49441489265985E+018,0,1.49441489265985E+018,gps,0,0,47.3958778381,8.64743900299,0,0,0,0,0,0,0,0,0,0,0
1.4944148927598E+018,0,1.4944148927598E+018,gps,0,0,47.3958778381,8.64743900299,0,0,0,0,0,0,0,0,0,0,0
1.49441489285993E+018,0,1.49441489285993E+018,gps,0,0,47.3958778381,8.64747047424,0,0,0,0,0,0,0,0,0,0,0
1.49441489295988E+018,0,1.49441489295988E+018,gps,0,0,47.3958778381,8.64747047424,0,0,0,0,0,0,0,0,0,0,0
1.49441489305975E+018,0,1.49441489305975E+018,gps,0,0,47.3958740234,8.64750289917,0,0,0,0,0,0,0,0,0,0,0
1.49441489316014E+018,0,1.49441489316014E+018,gps,0,0,47.3958740234,8.64750289917,0,0,0,0,0,0,0,0,0,0,0
1.4944148932598E+018,0,1.4944148932598E+018,gps,0,0,47.3958740234,8.64753341675,0,0,0,0,0,0,0,0,0,0,0
1.49441489335975E+018,0,1.49441489335975E+018,gps,0,0,47.3958740234,8.64753341675,0,0,0,0,0,0,0,0,0,0,0
1.49441489345977E+018,0,1.49441489345977E+018,gps,0,0,47.3958740234,8.647564888,0,0,0,0,0,0,0,0,0,0,0
1.49441489355969E+018,0,1.49441489355969E+018,gps,0,0,47.3958740234,8.647564888,0,0,0,0,0,0,0,0,0,0,0
1.49441489365988E+018,0,1.49441489365988E+018,gps,0,0,47.3958702087,8.6475944519,0,0,0,0,0,0,0,0,0,0,0
1.49441489375978E+018,0,1.49441489375978E+018,gps,0,0,47.3958702087,8.6475944519,0,0,0,0,0,0,0,0,0,0,0
1.49441489385973E+018,0,1.49441489385973E+018,gps,0,0,47.395866394,8.64762210846,0,0,0,0,0,0,0,0,0,0,0
1.49441489395978E+018,0,1.49441489395978E+018,gps,0,0,47.395866394,8.64762210846,0,0,0,0,0,0,0,0,0,0,0
1.49441489405972E+018,0,1.49441489405972E+018,gps,0,0,47.3958625793,8.64764976501,0,0,0,0,0,0,0,0,0,0,0
1.49441489416009E+018,0,1.49441489416009E+018,gps,0,0,47.3958625793,8.64764976501,0,0,0,0,0,0,0,0,0,0,0
1.49441489425977E+018,0,1.49441489425977E+018,gps,0,0,47.3958625793,8.6476764679,0,0,0,0,0,0,0,0,0,0,0
1.49441489435976E+018,0,1.49441489435976E+018,gps,0,0,47.3958625793,8.6476764679,0,0,0,0,0,0,0,0,0,0,0
1.49441489445972E+018,0,1.49441489445972E+018,gps,0,0,47.3958625793,8.6477022171,0,0,0,0,0,0,0,0,0,0,0
1.4944148945599E+018,0,1.4944148945599E+018,gps,0,0,47.3958625793,8.6477022171,0,0,0,0,0,0,0,0,0,0,0
1.49441489465974E+018,0,1.49441489465974E+018,gps,0,0,47.3958625793,8.64772796631,0,0,0,0,0,0,0,0,0,0,0
1.49441489475977E+018,0,1.49441489475977E+018,gps,0,0,47.3958625793,8.64772796631,0,0,0,0,0,0,0,0,0,0,0
1.49441489485975E+018,0,1.49441489485975E+018,gps,0,0,47.395866394,8.64775276184,0,0,0,0,0,0,0,0,0,0,0
1.49441489495981E+018,0,1.49441489495981E+018,gps,0,0,47.395866394,8.64775276184,0,0,0,0,0,0,0,0,0,0,0
1.49441489505968E+018,0,1.49441489505968E+018,gps,0,0,47.3958702087,8.6477766037,0,0,0,0,0,0,0,0,0,0,0
1.49441489516008E+018,0,1.49441489516008E+018,gps,0,0,47.3958702087,8.6477766037,0,0,0,0,0,0,0,0,0,0,0
1.4944148952597E+018,0,1.4944148952597E+018,gps,0,0,47.3958740234,8.64780044556,0,0,0,0,0,0,0,0,0,0,0
1.49441489535979E+018,0,1.49441489535979E+018,gps,0,0,47.3958740234,8.64780044556,0,0,0,0,0,0,0,0,0,0,0
1.49441489545966E+018,0,1.49441489545966E+018,gps,0,0,47.3958740234,8.64782524109,0,0,0,0,0,0,0,0,0,0,0
1.49441489555979E+018,0,1.49441489555979E+018,gps,0,0,47.3958740234,8.64782524109,0,0,0,0,0,0,0,0,0,0,0
1.4944148956597E+018,0,1.4944148956597E+018,gps,0,0,47.3958740234,8.64784908295,0,0,0,0,0,0,0,0,0,0,0
1.49441489575975E+018,0,1.49441489575975E+018,gps,0,0,47.3958740234,8.64784908295,0,0,0,0,0,0,0,0,0,0,0
1.49441489585967E+018,0,1.49441489585967E+018,gps,0,0,47.3958740234,8.64787197113,0,0,0,0,0,0,0,0,0,0,0
1.49441489595969E+018,0,1.49441489595969E+018,gps,0,0,47.3958740234,8.64787197113,0,0,0,0,0,0,0,0,0,0,0
1.49441489605963E+018,0,1.49441489605963E+018,gps,0,0,47.3958702087,8.64789485931,0,0,0,0,0,0,0,0,0,0,0
1.49441489616013E+018,0,1.49441489616013E+018,gps,0,0,47.3958702087,8.64789485931,0,0,0,0,0,0,0,0,0,0,0
1.49441489625979E+018,0,1.49441489625979E+018,gps,0,0,47.3958625793,8.6479177475,0,0,0,0,0,0,0,0,0,0,0
1.49441489635968E+018,0,1.49441489635968E+018,gps,0,0,47.3958625793,8.6479177475,0,0,0,0,0,0,0,0,0,0,0
1.49441489645967E+018,0,1.49441489645967E+018,gps,0,0,47.39585495,8.64793968201,0,0,0,0,0,0,0,0,0,0,0
1.49441489655979E+018,0,1.49441489655979E+018,gps,0,0,47.39585495,8.64793968201,0,0,0,0,0,0,0,0,0,0,0
1.49441489665971E+018,0,1.49441489665971E+018,gps,0,0,47.3958511353,8.64795970917,0,0,0,0,0,0,0,0,0,0,0
1.49441489675968E+018,0,1.49441489675968E+018,gps,0,0,47.3958511353,8.64795970917,0,0,0,0,0,0,0,0,0,0,0
1.49441489685972E+018,0,1.49441489685972E+018,gps,0,0,47.3958473206,8.64798164368,0,0,0,0,0,0,0,0,0,0,0
1.49441489695964E+018,0,1.49441489695964E+018,gps,0,0,47.3958473206,8.64798164368,0,0,0,0,0,0,0,0,0,0,0
1.49441489705965E+018,0,1.49441489705965E+018,gps,0,0,47.3958396912,8.64800453186,0,0,0,0,0,0,0,0,0,0,0
1.49441489716008E+018,0,1.49441489716008E+018,gps,0,0,47.3958396912,8.64800453186,0,0,0,0,0,0,0,0,0,0,0
1.49441489725969E+018,0,1.49441489725969E+018,gps,0,0,47.3958358765,8.64802837372,0,0,0,0,0,0,0,0,0,0,0
1.49441489735973E+018,0,1.49441489735973E+018,gps,0,0,47.3958358765,8.64802837372,0,0,0,0,0,0,0,0,0,0,0
1.49441489745975E+018,0,1.49441489745975E+018,gps,0,0,47.3958358765,8.64805221558,0,0,0,0,0,0,0,0,0,0,0
1.49441489755963E+018,0,1.49441489755963E+018,gps,0,0,47.3958358765,8.64805221558,0,0,0,0,0,0,0,0,0,0,0
1.49441489765968E+018,0,1.49441489765968E+018,gps,0,0,47.3958320618,8.64807701111,0,0,0,0,0,0,0,0,0,0,0
1.49441489775964E+018,0,1.49441489775964E+018,gps,0,0,47.3958320618,8.64807701111,0,0,0,0,0,0,0,0,0,0,0
1.49441489785963E+018,0,1.49441489785963E+018,gps,0,0,47.3958282471,8.64810180664,0,0,0,0,0,0,0,0,0,0,0
1.49441489795971E+018,0,1.49441489795971E+018,gps,0,0,47.3958282471,8.64810180664,0,0,0,0,0,0,0,0,0,0,0
1.49441489805961E+018,0,1.49441489805961E+018,gps,0,0,47.3958282471,8.64812755585,0,0,0,0,0,0,0,0,0,0,0
1.49441489815996E+018,0,1.49441489815996E+018,gps,0,0,47.3958282471,8.64812755585,0,0,0,0,0,0,0,0,0,0,0
1.49441489825962E+018,0,1.49441489825962E+018,gps,0,0,47.3958244324,8.64815139771,0,0,0,0,0,0,0,0,0,0,0
1.49441489835967E+018,0,1.49441489835967E+018,gps,0,0,47.3958244324,8.64815139771,0,0,0,0,0,0,0,0,0,0,0
1.49441489845965E+018,0,1.49441489845965E+018,gps,0,0,47.3958206177,8.64817333221,0,0,0,0,0,0,0,0,0,0,0
1.49441489855971E+018,0,1.49441489855971E+018,gps,0,0,47.3958206177,8.64817333221,0,0,0,0,0,0,0,0,0,0,0
1.49441489865972E+018,0,1.49441489865972E+018,gps,0,0,47.3958206177,8.64819335938,0,0,0,0,0,0,0,0,0,0,0
1.49441489875968E+018,0,1.49441489875968E+018,gps,0,0,47.3958206177,8.64819335938,0,0,0,0,0,0,0,0,0,0,0
1.49441489885959E+018,0,1.49441489885959E+018,gps,0,0,47.3958206177,8.64821147919,0,0,0,0,0,0,0,0,0,0,0
1.49441489895966E+018,0,1.49441489895966E+018,gps,0,0,47.3958206177,8.64821147919,0,0,0,0,0,0,0,0,0,0,0
1.49441489905986E+018,0,1.49441489905986E+018,gps,0,0,47.3958206177,8.64822864532,0,0,0,0,0,0,0,0,0,0,0
1.49441489915996E+018,0,1.49441489915996E+018,gps,0,0,47.3958206177,8.64822864532,0,0,0,0,0,0,0,0,0,0,0
1.49441489925971E+018,0,1.49441489925971E+018,gps,0,0,47.3958244324,8.64824485779,0,0,0,0,0,0,0,0,0,0,0
1.49441489935967E+018,0,1.49441489935967E+018,gps,0,0,47.3958244324,8.64824485779,0,0,0,0,0,0,0,0,0,0,0
1.49441489945969E+018,0,1.49441489945969E+018,gps,0,0,47.3958320618,8.64825820923,0,0,0,0,0,0,0,0,0,0,0
1.4944148995597E+018,0,1.4944148995597E+018,gps,0,0,47.3958320618,8.64825820923,0,0,0,0,0,0,0,0,0,0,0
1.49441489965973E+018,0,1.49441489965973E+018,gps,0,0,47.3958435059,8.64826965332,0,0,0,0,0,0,0,0,0,0,0
1.49441489975968E+018,0,1.49441489975968E+018,gps,0,0,47.3958435059,8.64826965332,0,0,0,0,0,0,0,0,0,0,0
1.49441489985965E+018,0,1.49441489985965E+018,gps,0,0,47.39585495,8.64827632904,0,0,0,0,0,0,0,0,0,0,0
1.49441489995959E+018,0,1.49441489995959E+018,gps,0,0,47.39585495,8.64827632904,0,0,0,0,0,0,0,0,0,0,0
1.4944149000596E+018,0,1.4944149000596E+018,gps,0,0,47.3958702087,8.64827919006,0,0,0,0,0,0,0,0,0,0,0
1.49441490016011E+018,0,1.49441490016011E+018,gps,0,0,47.3958702087,8.64827919006,0,0,0,0,0,0,0,0,0,0,0
1.49441490025968E+018,0,1.49441490025968E+018,gps,0,0,47.3958854675,8.64827919006,0,0,0,0,0,0,0,0,0,0,0
1.49441490035976E+018,0,1.49441490035976E+018,gps,0,0,47.3958854675,8.64827919006,0,0,0,0,0,0,0,0,0,0,0
1.49441490045969E+018,0,1.49441490045969E+018,gps,0,0,47.3959007263,8.64827632904,0,0,0,0,0,0,0,0,0,0,0
1.49441490055964E+018,0,1.49441490055964E+018,gps,0,0,47.3959007263,8.64827632904,0,0,0,0,0,0,0,0,0,0,0
1.49441490065968E+018,0,1.49441490065968E+018,gps,0,0,47.3959159851,8.64827060699,0,0,0,0,0,0,0,0,0,0,0
1.49441490075961E+018,0,1.49441490075961E+018,gps,0,0,47.3959159851,8.64827060699,0,0,0,0,0,0,0,0,0,0,0
1.4944149008596E+018,0,1.4944149008596E+018,gps,0,0,47.3959350586,8.64826202393,0,0,0,0,0,0,0,0,0,0,0
1.49441490095953E+018,0,1.49441490095953E+018,gps,0,0,47.3959350586,8.64826202393,0,0,0,0,0,0,0,0,0,0,0
1.49441490105962E+018,0,1.49441490105962E+018,gps,0,0,47.3959503174,8.64825153351,0,0,0,0,0,0,0,0,0,0,0
1.49441490115995E+018,0,1.49441490115995E+018,gps,0,0,47.3959503174,8.64825153351,0,0,0,0,0,0,0,0,0,0,0
1.49441490125974E+018,0,1.49441490125974E+018,gps,0,0,47.3959693909,8.64823818207,0,0,0,0,0,0,0,0,0,0,0
1.49441490135967E+018,0,1.49441490135967E+018,gps,0,0,47.3959693909,8.64823818207,0,0,0,0,0,0,0,0,0,0,0
1.49441490145966E+018,0,1.49441490145966E+018,gps,0,0,47.3959846497,8.64822292328,0,0,0,0,0,0,0,0,0,0,0
1.49441490155967E+018,0,1.49441490155967E+018,gps,0,0,47.3959846497,8.64822292328,0,0,0,0,0,0,0,0,0,0,0
1.49441490165961E+018,0,1.49441490165961E+018,gps,0,0,47.3959999084,8.64820957184,0,0,0,0,0,0,0,0,0,0,0
1.49441490175961E+018,0,1.49441490175961E+018,gps,0,0,47.3959999084,8.64820957184,0,0,0,0,0,0,0,0,0,0,0
1.49441490185962E+018,0,1.49441490185962E+018,gps,0,0,47.3960151672,8.64820098877,0,0,0,0,0,0,0,0,0,0,0
1.49441490195962E+018,0,1.49441490195962E+018,gps,0,0,47.3960151672,8.64820098877,0,0,0,0,0,0,0,0,0,0,0
1.49441490205964E+018,0,1.49441490205964E+018,gps,0,0,47.3960342407,8.64819812775,0,0,0,0,0,0,0,0,0,0,0
1.49441490215992E+018,0,1.49441490215992E+018,gps,0,0,47.3960342407,8.64819812775,0,0,0,0,0,0,0,0,0,0,0
1.49441490225959E+018,0,1.49441490225959E+018,gps,0,0,47.3960533142,8.64820194244,0,0,0,0,0,0,0,0,0,0,0
1.49441490235975E+018,0,1.49441490235975E+018,gps,0,0,47.3960533142,8.64820194244,0,0,0,0,0,0,0,0,0,0,0
1.49441490245967E+018,0,1.49441490245967E+018,gps,0,0,47.3960647583,8.64820957184,0,0,0,0,0,0,0,0,0,0,0
1.49441490255958E+018,0,1.49441490255958E+018,gps,0,0,47.3960647583,8.64820957184,0,0,0,0,0,0,0,0,0,0,0
1.49441490265962E+018,0,1.49441490265962E+018,gps,0,0,47.3960762024,8.64822101593,0,0,0,0,0,0,0,0,0,0,0
1.49441490275979E+018,0,1.49441490275979E+018,gps,0,0,47.3960762024,8.64822101593,0,0,0,0,0,0,0,0,0,0,0
1.49441490285963E+018,0,1.49441490285963E+018,gps,0,0,47.3960914612,8.64823722839,0,0,0,0,0,0,0,0,0,0,0
1.49441490295954E+018,0,1.49441490295954E+018,gps,0,0,47.3960914612,8.64823722839,0,0,0,0,0,0,0,0,0,0,0
1.49441490305955E+018,0,1.49441490305955E+018,gps,0,0,47.3961029053,8.64825248718,0,0,0,0,0,0,0,0,0,0,0
1.49441490315993E+018,0,1.49441490315993E+018,gps,0,0,47.3961029053,8.64825248718,0,0,0,0,0,0,0,0,0,0,0
1.49441490325961E+018,0,1.49441490325961E+018,gps,0,0,47.3961181641,8.6482667923,0,0,0,0,0,0,0,0,0,0,0
1.49441490335959E+018,0,1.49441490335959E+018,gps,0,0,47.3961181641,8.6482667923,0,0,0,0,0,0,0,0,0,0,0
1.49441490345959E+018,0,1.49441490345959E+018,gps,0,0,47.3961334229,8.64827632904,0,0,0,0,0,0,0,0,0,0,0
1.49441490355958E+018,0,1.49441490355958E+018,gps,0,0,47.3961334229,8.64827632904,0,0,0,0,0,0,0,0,0,0,0
1.49441490365967E+018,0,1.49441490365967E+018,gps,0,0,47.3961486816,8.64828205109,0,0,0,0,0,0,0,0,0,0,0
1.49441490375969E+018,0,1.49441490375969E+018,gps,0,0,47.3961486816,8.64828205109,0,0,0,0,0,0,0,0,0,0,0
1.49441490385956E+018,0,1.49441490385956E+018,gps,0,0,47.3961639404,8.64828395844,0,0,0,0,0,0,0,0,0,0,0
1.49441490395958E+018,0,1.49441490395958E+018,gps,0,0,47.3961639404,8.64828395844,0,0,0,0,0,0,0,0,0,0,0
1.49441490405962E+018,0,1.49441490405962E+018,gps,0,0,47.3961753845,8.64828014374,0,0,0,0,0,0,0,0,0,0,0
1.49441490415992E+018,0,1.49441490415992E+018,gps,0,0,47.3961753845,8.64828014374,0,0,0,0,0,0,0,0,0,0,0
1.49441490425964E+018,0,1.49441490425964E+018,gps,0,0,47.3961906433,8.64827156067,0,0,0,0,0,0,0,0,0,0,0
1.49441490435962E+018,0,1.49441490435962E+018,gps,0,0,47.3961906433,8.64827156067,0,0,0,0,0,0,0,0,0,0,0
1.49441490445964E+018,0,1.49441490445964E+018,gps,0,0,47.3961982727,8.64825725555,0,0,0,0,0,0,0,0,0,0,0
1.49441490455972E+018,0,1.49441490455972E+018,gps,0,0,47.3961982727,8.64825725555,0,0,0,0,0,0,0,0,0,0,0
1.49441490465961E+018,0,1.49441490465961E+018,gps,0,0,47.3962059021,8.64824008942,0,0,0,0,0,0,0,0,0,0,0
1.49441490475958E+018,0,1.49441490475958E+018,gps,0,0,47.3962059021,8.64824008942,0,0,0,0,0,0,0,0,0,0,0
1.49441490485956E+018,0,1.49441490485956E+018,gps,0,0,47.3962059021,8.6482219696,0,0,0,0,0,0,0,0,0,0,0
1.49441490495962E+018,0,1.49441490495962E+018,gps,0,0,47.3962059021,8.6482219696,0,0,0,0,0,0,0,0,0,0,0
1.49441490505962E+018,0,1.49441490505962E+018,gps,0,0,47.3961982727,8.64820480347,0,0,0,0,0,0,0,0,0,0,0
1.49441490515986E+018,0,1.49441490515986E+018,gps,0,0,47.3961982727,8.64820480347,0,0,0,0,0,0,0,0,0,0,0
1.49441490525953E+018,0,1.49441490525953E+018,gps,0,0,47.396194458,8.64819049835,0,0,0,0,0,0,0,0,0,0,0
1.49441490535959E+018,0,1.49441490535959E+018,gps,0,0,47.396194458,8.64819049835,0,0,0,0,0,0,0,0,0,0,0
1.49441490545961E+018,0,1.49441490545961E+018,gps,0,0,47.3961830139,8.64817810059,0,0,0,0,0,0,0,0,0,0,0
1.49441490555952E+018,0,1.49441490555952E+018,gps,0,0,47.3961830139,8.64817810059,0,0,0,0,0,0,0,0,0,0,0
1.49441490565959E+018,0,1.49441490565959E+018,gps,0,0,47.3961715698,8.64817047119,0,0,0,0,0,0,0,0,0,0,0
1.49441490575961E+018,0,1.49441490575961E+018,gps,0,0,47.3961715698,8.64817047119,0,0,0,0,0,0,0,0,0,0,0
1.49441490585958E+018,0,1.49441490585958E+018,gps,0,0,47.3961601257,8.64816379547,0,0,0,0,0,0,0,0,0,0,0
1.49441490595949E+018,0,1.49441490595949E+018,gps,0,0,47.3961601257,8.64816379547,0,0,0,0,0,0,0,0,0,0,0
1.49441490605953E+018,0,1.49441490605953E+018,gps,0,0,47.3961448669,8.64815807343,0,0,0,0,0,0,0,0,0,0,0
1.4944149061599E+018,0,1.4944149061599E+018,gps,0,0,47.3961448669,8.64815807343,0,0,0,0,0,0,0,0,0,0,0
1.49441490625968E+018,0,1.49441490625968E+018,gps,0,0,47.3961334229,8.64814853668,0,0,0,0,0,0,0,0,0,0,0
1.49441490635959E+018,0,1.49441490635959E+018,gps,0,0,47.3961334229,8.64814853668,0,0,0,0,0,0,0,0,0,0,0
1.49441490645964E+018,0,1.49441490645964E+018,gps,0,0,47.3961143494,8.64813709259,0,0,0,0,0,0,0,0,0,0,0
1.49441490655955E+018,0,1.49441490655955E+018,gps,0,0,47.3961143494,8.64813709259,0,0,0,0,0,0,0,0,0,0,0
1.49441490665958E+018,0,1.49441490665958E+018,gps,0,0,47.3961029053,8.6481218338,0,0,0,0,0,0,0,0,0,0,0
1.49441490675956E+018,0,1.49441490675956E+018,gps,0,0,47.3961029053,8.6481218338,0,0,0,0,0,0,0,0,0,0,0
1.49441490685949E+018,0,1.49441490685949E+018,gps,0,0,47.3960876465,8.64810371399,0,0,0,0,0,0,0,0,0,0,0
1.49441490695954E+018,0,1.49441490695954E+018,gps,0,0,47.3960876465,8.64810371399,0,0,0,0,0,0,0,0,0,0,0
1.49441490705959E+018,0,1.49441490705959E+018,gps,0,0,47.3960723877,8.64808368683,0,0,0,0,0,0,0,0,0,0,0
1.49441490715984E+018,0,1.49441490715984E+018,gps,0,0,47.3960723877,8.64808368683,0,0,0,0,0,0,0,0,0,0,0
1.49441490725952E+018,0,1.49441490725952E+018,gps,0,0,47.3960609436,8.64805984497,0,0,0,0,0,0,0,0,0,0,0
1.49441490735946E+018,0,1.49441490735946E+018,gps,0,0,47.3960609436,8.64805984497,0,0,0,0,0,0,0,0,0,0,0
1.49441490745956E+018,0,1.49441490745956E+018,gps,0,0,47.3960533142,8.64803409576,0,0,0,0,0,0,0,0,0,0,0
1.49441490755957E+018,0,1.49441490755957E+018,gps,0,0,47.3960533142,8.64803409576,0,0,0,0,0,0,0,0,0,0,0
1.49441490765946E+018,0,1.49441490765946E+018,gps,0,0,47.3960456848,8.64800739288,0,0,0,0,0,0,0,0,0,0,0
1.4944149077595E+018,0,1.4944149077595E+018,gps,0,0,47.3960456848,8.64800739288,0,0,0,0,0,0,0,0,0,0,0
1.49441490785949E+018,0,1.49441490785949E+018,gps,0,0,47.3960380554,8.64798069,0,0,0,0,0,0,0,0,0,0,0
1.49441490795957E+018,0,1.49441490795957E+018,gps,0,0,47.3960380554,8.64798069,0,0,0,0,0,0,0,0,0,0,0
1.49441490805959E+018,0,1.49441490805959E+018,gps,0,0,47.3960342407,8.6479549408,0,0,0,0,0,0,0,0,0,0,0
1.49441490815977E+018,0,1.49441490815977E+018,gps,0,0,47.3960342407,8.6479549408,0,0,0,0,0,0,0,0,0,0,0
1.49441490825955E+018,0,1.49441490825955E+018,gps,0,0,47.3960266113,8.64793109894,0,0,0,0,0,0,0,0,0,0,0
1.4944149083596E+018,0,1.4944149083596E+018,gps,0,0,47.3960266113,8.64793109894,0,0,0,0,0,0,0,0,0,0,0
1.49441490845954E+018,0,1.49441490845954E+018,gps,0,0,47.3960151672,8.6479101181,0,0,0,0,0,0,0,0,0,0,0
1.49441490855958E+018,0,1.49441490855958E+018,gps,0,0,47.3960151672,8.6479101181,0,0,0,0,0,0,0,0,0,0,0
1.49441490865953E+018,0,1.49441490865953E+018,gps,0,0,47.3959960938,8.64789104462,0,0,0,0,0,0,0,0,0,0,0
1.49441490875955E+018,0,1.49441490875955E+018,gps,0,0,47.3959960938,8.64789104462,0,0,0,0,0,0,0,0,0,0,0
1.49441490885957E+018,0,1.49441490885957E+018,gps,0,0,47.3959846497,8.64787101746,0,0,0,0,0,0,0,0,0,0,0
1.49441490895954E+018,0,1.49441490895954E+018,gps,0,0,47.3959846497,8.64787101746,0,0,0,0,0,0,0,0,0,0,0
1.49441490905952E+018,0,1.49441490905952E+018,gps,0,0,47.3959732056,8.6478471756,0,0,0,0,0,0,0,0,0,0,0
1.49441490915981E+018,0,1.49441490915981E+018,gps,0,0,47.3959732056,8.6478471756,0,0,0,0,0,0,0,0,0,0,0
1.49441490925959E+018,0,1.49441490925959E+018,gps,0,0,47.3959579468,8.64782047272,0,0,0,0,0,0,0,0,0,0,0
1.49441490935956E+018,0,1.49441490935956E+018,gps,0,0,47.3959579468,8.64782047272,0,0,0,0,0,0,0,0,0,0,0
1.49441490945956E+018,0,1.49441490945956E+018,gps,0,0,47.3959503174,8.64779281616,0,0,0,0,0,0,0,0,0,0,0
1.49441490955953E+018,0,1.49441490955953E+018,gps,0,0,47.3959503174,8.64779281616,0,0,0,0,0,0,0,0,0,0,0
1.49441490965956E+018,0,1.49441490965956E+018,gps,0,0,47.395942688,8.64776325226,0,0,0,0,0,0,0,0,0,0,0
1.49441490975954E+018,0,1.49441490975954E+018,gps,0,0,47.395942688,8.64776325226,0,0,0,0,0,0,0,0,0,0,0
1.49441490985958E+018,0,1.49441490985958E+018,gps,0,0,47.3959350586,8.64773178101,0,0,0,0,0,0,0,0,0,0,0
1.49441490995964E+018,0,1.49441490995964E+018,gps,0,0,47.3959350586,8.64773178101,0,0,0,0,0,0,0,0,0,0,0
1.49441491005953E+018,0,1.49441491005953E+018,gps,0,0,47.3959312439,8.64770126343,0,0,0,0,0,0,0,0,0,0,0
1.49441491015985E+018,0,1.49441491015985E+018,gps,0,0,47.3959312439,8.64770126343,0,0,0,0,0,0,0,0,0,0,0
1.49441491025951E+018,0,1.49441491025951E+018,gps,0,0,47.3959274292,8.64766788483,0,0,0,0,0,0,0,0,0,0,0
1.49441491035961E+018,0,1.49441491035961E+018,gps,0,0,47.3959274292,8.64766788483,0,0,0,0,0,0,0,0,0,0,0
1.49441491045957E+018,0,1.49441491045957E+018,gps,0,0,47.3959236145,8.6476354599,0,0,0,0,0,0,0,0,0,0,0
1.49441491055957E+018,0,1.49441491055957E+018,gps,0,0,47.3959236145,8.6476354599,0,0,0,0,0,0,0,0,0,0,0
1.49441491065953E+018,0,1.49441491065953E+018,gps,0,0,47.3959236145,8.6476020813,0,0,0,0,0,0,0,0,0,0,0
1.49441491075947E+018,0,1.49441491075947E+018,gps,0,0,47.3959236145,8.6476020813,0,0,0,0,0,0,0,0,0,0,0
1.49441491085957E+018,0,1.49441491085957E+018,gps,0,0,47.3959236145,8.64756774902,0,0,0,0,0,0,0,0,0,0,0
1.49441491095958E+018,0,1.49441491095958E+018,gps,0,0,47.3959236145,8.64756774902,0,0,0,0,0,0,0,0,0,0,0
1.49441491105954E+018,0,1.49441491105954E+018,gps,0,0,47.3959236145,8.64753437042,0,0,0,0,0,0,0,0,0,0,0
1.49441491115967E+018,0,1.49441491115967E+018,gps,0,0,47.3959236145,8.64753437042,0,0,0,0,0,0,0,0,0,0,0
1.49441491125944E+018,0,1.49441491125944E+018,gps,0,0,47.3959274292,8.64750099182,0,0,0,0,0,0,0,0,0,0,0
1.49441491135961E+018,0,1.49441491135961E+018,gps,0,0,47.3959274292,8.64750099182,0,0,0,0,0,0,0,0,0,0,0
1.49441491145947E+018,0,1.49441491145947E+018,gps,0,0,47.3959236145,8.64746761322,0,0,0,0,0,0,0,0,0,0,0
1.49441491155953E+018,0,1.49441491155953E+018,gps,0,0,47.3959236145,8.64746761322,0,0,0,0,0,0,0,0,0,0,0
1.49441491165948E+018,0,1.49441491165948E+018,gps,0,0,47.3959236145,8.64743328094,0,0,0,0,0,0,0,0,0,0,0
1.49441491175949E+018,0,1.49441491175949E+018,gps,0,0,47.3959236145,8.64743328094,0,0,0,0,0,0,0,0,0,0,0
1.4944149118596E+018,0,1.4944149118596E+018,gps,0,0,47.3959197998,8.64739990234,0,0,0,0,0,0,0,0,0,0,0
1.4944149119595E+018,0,1.4944149119595E+018,gps,0,0,47.3959197998,8.64739990234,0,0,0,0,0,0,0,0,0,0,0
1.49441491205955E+018,0,1.49441491205955E+018,gps,0,0,47.3959159851,8.64736938477,0,0,0,0,0,0,0,0,0,0,0
1.49441491215975E+018,0,1.49441491215975E+018,gps,0,0,47.3959159851,8.64736938477,0,0,0,0,0,0,0,0,0,0,0
1.49441491225953E+018,0,1.49441491225953E+018,gps,0,0,47.3959197998,8.64734077454,0,0,0,0,0,0,0,0,0,0,0
1.49441491235962E+018,0,1.49441491235962E+018,gps,0,0,47.3959197998,8.64734077454,0,0,0,0,0,0,0,0,0,0,0
1.49441491245948E+018,0,1.49441491245948E+018,gps,0,0,47.3959197998,8.647315979,0,0,0,0,0,0,0,0,0,0,0
1.49441491255952E+018,0,1.49441491255952E+018,gps,0,0,47.3959197998,8.647315979,0,0,0,0,0,0,0,0,0,0,0
1.49441491265947E+018,0,1.49441491265947E+018,gps,0,0,47.3959236145,8.64729309082,0,0,0,0,0,0,0,0,0,0,0
1.49441491275945E+018,0,1.49441491275945E+018,gps,0,0,47.3959236145,8.64729309082,0,0,0,0,0,0,0,0,0,0,0
1.49441491285953E+018,0,1.49441491285953E+018,gps,0,0,47.3959274292,8.64727210999,0,0,0,0,0,0,0,0,0,0,0
1.49441491295952E+018,0,1.49441491295952E+018,gps,0,0,47.3959274292,8.64727210999,0,0,0,0,0,0,0,0,0,0,0
1.49441491305951E+018,0,1.49441491305951E+018,gps,0,0,47.3959274292,8.64725494385,0,0,0,0,0,0,0,0,0,0,0
1.49441491315978E+018,0,1.49441491315978E+018,gps,0,0,47.3959274292,8.64725494385,0,0,0,0,0,0,0,0,0,0,0
1.49441491325947E+018,0,1.49441491325947E+018,gps,0,0,47.3959236145,8.64723968506,0,0,0,0,0,0,0,0,0,0,0
1.4944149133595E+018,0,1.4944149133595E+018,gps,0,0,47.3959236145,8.64723968506,0,0,0,0,0,0,0,0,0,0,0
1.49441491345946E+018,0,1.49441491345946E+018,gps,0,0,47.3959159851,8.64722728729,0,0,0,0,0,0,0,0,0,0,0
1.49441491355942E+018,0,1.49441491355942E+018,gps,0,0,47.3959159851,8.64722728729,0,0,0,0,0,0,0,0,0,0,0
1.49441491365944E+018,0,1.49441491365944E+018,gps,0,0,47.3959083557,8.6472196579,0,0,0,0,0,0,0,0,0,0,0
1.49441491375943E+018,0,1.49441491375943E+018,gps,0,0,47.3959083557,8.6472196579,0,0,0,0,0,0,0,0,0,0,0
1.49441491385952E+018,0,1.49441491385952E+018,gps,0,0,47.3958969116,8.64721870422,0,0,0,0,0,0,0,0,0,0,0
1.49441491395949E+018,0,1.49441491395949E+018,gps,0,0,47.3958969116,8.64721870422,0,0,0,0,0,0,0,0,0,0,0
1.49441491405943E+018,0,1.49441491405943E+018,gps,0,0,47.3958892822,8.64722156525,0,0,0,0,0,0,0,0,0,0,0
1.49441491415968E+018,0,1.49441491415968E+018,gps,0,0,47.3958892822,8.64722156525,0,0,0,0,0,0,0,0,0,0,0
1.49441491425941E+018,0,1.49441491425941E+018,gps,0,0,47.3958816528,8.64722919464,0,0,0,0,0,0,0,0,0,0,0
1.49441491435951E+018,0,1.49441491435951E+018,gps,0,0,47.3958816528,8.64722919464,0,0,0,0,0,0,0,0,0,0,0
1.49441491445939E+018,0,1.49441491445939E+018,gps,0,0,47.3958740234,8.64723968506,0,0,0,0,0,0,0,0,0,0,0
1.49441491455946E+018,0,1.49441491455946E+018,gps,0,0,47.3958740234,8.64723968506,0,0,0,0,0,0,0,0,0,0,0
1.49441491465948E+018,0,1.49441491465948E+018,gps,0,0,47.3958740234,8.6472530365,0,0,0,0,0,0,0,0,0,0,0
1.49441491475938E+018,0,1.49441491475938E+018,gps,0,0,47.3958740234,8.6472530365,0,0,0,0,0,0,0,0,0,0,0
1.49441491485946E+018,0,1.49441491485946E+018,gps,0,0,47.3958740234,8.64726829529,0,0,0,0,0,0,0,0,0,0,0
1.49441491495947E+018,0,1.49441491495947E+018,gps,0,0,47.3958740234,8.64726829529,0,0,0,0,0,0,0,0,0,0,0
